Waterbody Name,Fish Species Present at Waterbody,Comments,Special Regulations on Waterbody,County,Types of Public Access,Public Fishing Access Owner,Waterbody Information,Longitude,Latitude,Location
Cayuta Creek,Brown Trout* - Sunfish,None,http://www.dec.ny.gov/outdoor/31435.html,Chemung,Shore Fishing - Public Fishing Rights,Public Easement,http://www.dec.ny.gov/docs/fish_marine_pdf/pfrcayutack.pdf,-76.611963564,42.227337629,"(42.227337629, -76.611963564)"
West Branch Owego Creek,Brook Trout - Brown Trout*,None,http://www.dec.ny.gov/outdoor/31498.html,Tompkins,Shore Fishing - Public Fishing Rights,Public Easement - Potato Hill State Forest (DEC),http://www.dec.ny.gov/outdoor/71802.html,-76.244183074,42.342364928,"(42.342364928, -76.244183074)"
Springwater Creek,Brown Trout - Rainbow Trout,City of Rochester permit required north of Kellogg Rd (585-428-6680).,http://www.dec.ny.gov/outdoor/31505.html,Livingston,Shore Fishing - Public Fishing Rights,Springwater Town Park - Public Easement,http://www.dec.ny.gov/docs/fish_marine_pdf/pfrsprngwtck.pdf,-77.602341462,42.634651912,"(42.634651912, -77.602341462)"
Irondequoit Creek,Brown Trout* - Chinook Salmon - Coho Salmon - Steelhead*,None,http://www.dec.ny.gov/outdoor/31420.html,Monroe,Shore Fishing,Ellison County Park,http://www.dec.ny.gov/docs/fish_marine_pdf/pfrirondiqck.pdf,-77.521331332,43.150610148,"(43.150610148, -77.521331332)"
Black Creek,Northern Pike,None,,Monroe,Shore Fishing - Boat Launch (Hand Launch),Black Creek Waterway Access (DEC),http://www.dec.ny.gov/outdoor/23886.html,-77.680819269,43.094731591,"(43.094731591, -77.680819269)"
Cryder Creek,Brook Trout - Brown Trout*,None,http://www.dec.ny.gov/outdoor/31494.html,Allegany,Shore Fishing - Public Fishing Rights,Public Easement,http://www.dec.ny.gov/docs/fish_marine_pdf/crydercreek.pdf,-77.774019415,42.036298217,"(42.036298217, -77.774019415)"
Oatka Creek,Brown Trout*,None,http://www.dec.ny.gov/outdoor/31448.html,Genesee,Shore Fishing - Public Fishing Rights,Public Easement,http://www.dec.ny.gov/docs/fish_marine_pdf/pfroatkacreek.pdf,-77.944782026,43.013874737,"(43.013874737, -77.944782026)"
Mill Creek,Brook Trout - Brown Trout,None,http://www.dec.ny.gov/outdoor/31494.html,Steuben,Shore Fishing - Public Fishing Rights,Public Easement,http://www.dec.ny.gov/docs/fish_marine_pdf/pfrmillckr8.pdf,-77.612254518,42.543555961,"(42.543555961, -77.612254518)"
Sandy Creek,Brown Trout - Chinook Salmon* - Coho Salmon* - Steelhead*,None,http://www.dec.ny.gov/outdoor/31420.html,Monroe,Shore Fishing - Public Fishing Rights,Public Easement,http://www.dec.ny.gov/docs/fish_marine_pdf/pfrsandycreek.pdf,-77.964620723,43.297090234,"(43.297090234, -77.964620723)"
Oak Orchard Creek,Atlantic Salmon - Brown Trout - Chinook Salmon* - Coho Salmon* - Steelhead*,Privately owned campground available.,http://www.dec.ny.gov/outdoor/31420.html,Orleans,Shore Fishing - Footpath,DEC,http://www.dec.ny.gov/docs/fish_marine_pdf/pfroakorchrv.pdf,-78.239453738,43.337392769,"(43.337392769, -78.239453738)"
Marsh Creek,Brown Trout - Chinook Salmon - Coho Salmon - Steelhead*,None,http://www.dec.ny.gov/outdoor/31420.html,Orleans,Shore Fishing - Public Fishing Rights,Public Easement,http://www.dec.ny.gov/docs/fish_marine_pdf/pfroakorchrv.pdf,-78.134251767,43.327022811,"(43.327022811, -78.134251767)"
Johnson Creek,Brown Trout - Chinook Salmon - Coho Salmon - Steelhead*,None,http://www.dec.ny.gov/outdoor/31420.html,Orleans,Shore Fishing - Public Fishing Rights,Public Easement,http://www.dec.ny.gov/docs/fish_marine_pdf/pfrjohnsonck.pdf,-78.358876011,43.335332766,"(43.335332766, -78.358876011)"
Oswego River Lower,Brown Trout - Steelhead* - Chinook Salmon* - Coho Salmon - Smallmouth Bass - Yellow Perch - Crappie - Walleye - Carp - Channel Catfish,Fishing pier available at municipal park.,,Oswego,Shore Fishing - Boat Launch (Trailer Improved),West Side Riverfront Linear Park (Municipal),http://www.dec.ny.gov/outdoor/41044.html,-76.511102113,43.458412046,"(43.458412046, -76.511102113)"
Oswego River Upper,Smallmouth Bass - Largemouth Bass - Sunfish - Yellow Perch - Crappie - Walleye - Carp - Channel Catfish,None,,Oswego,Boat Launch (Trailer Improved),Municipal,http://www.dec.ny.gov/outdoor/41044.html,-76.415509131,43.335568609,"(43.335568609, -76.415509131)"
Oneida River,Largemouth Bass - Smallmouth Bass - Crappie - Northern Pike - Carp - Channel Catfish,None,,Onondaga,Boat Launch (Trailer Improved),DEC,http://www.dec.ny.gov/outdoor/23881.html,-76.266299646,43.210378118,"(43.210378118, -76.266299646)"
Salmon River,Brown Trout* - Steelhead* - Chinook Salmon* - Coho Salmon* - Atlantic Salmon* - Smallmouth Bass,None,,Oswego,Shore Fishing - Public Fishing Rights,Public Easement,http://www.dec.ny.gov/outdoor/37926.html,-76.036001935,43.531040188,"(43.531040188, -76.036001935)"
North Branch Salmon River,Brook Trout*,None,,Oswego,Shore Fishing - Public Fishing Rights,Public Easement - Battle Hill State Forest (DEC),http://www.dec.ny.gov/docs/fish_marine_pdf/r7nbrsalrpfr.pdf,-75.826856729,43.569334098,"(43.569334098, -75.826856729)"
Chittenango Creek,Brown Trout*,None,http://www.dec.ny.gov/outdoor/31460.html,Madison,Shore Fishing - Public Fishing Rights,Public Easement - Cittenango Falls State Park,http://www.dec.ny.gov/outdoor/71484.html,-75.836793871,42.974972077,"(42.974972077, -75.836793871)"
Butternut Creek,Brook Trout - Brown Trout*,None,http://www.dec.ny.gov/outdoor/31471.html,Onondaga,Shore Fishing - Public Fishing Rights,Public Easement,http://www.dec.ny.gov/docs/fish_marine_pdf/r7buttnutpfr.pdf,-76.066496504,42.841321446,"(42.841321446, -76.066496504)"
Limestone Creek,Brook Trout* - Brown Trout*,None,,Onondaga,Shore Fishing - Public Fishing Rights,Public Easement,http://www.dec.ny.gov/outdoor/71711.html,-75.905326967,42.881034849,"(42.881034849, -75.905326967)"
Carmans River,Brook Trout* - Brown Trout* - Rainbow Trout*,Suffolk county permit required (631-854-4949).,http://www.dec.ny.gov/outdoor/31495.html,Suffolk,Shore Fishing,Southhaven County Park,,-72.887817171,40.809070751,"(40.809070751, -72.887817171)"
Seneca River,Smallmouth Bass - Largemouth Bass - Sunfish - Yellow Perch - Crappie - Tiger Musky* - Northern Pike - Walleye - Carp - Channel Catfish,None,,Cayuga,Boat Launch (Trailer Improved),DEC,http://www.dec.ny.gov/outdoor/66680.html,-76.645294543,43.078640839,"(43.078640839, -76.645294543)"
Ninemile Creek,Brook Trout* - Brown Trout*,None,http://www.dec.ny.gov/outdoor/31471.html,Onondaga,Shore Fishing - Public Fishing Rights,Public Easement,http://www.dec.ny.gov/outdoor/71660.html,-76.330451117,43.026443294,"(43.026443294, -76.330451117)"
Grout Brook,Rainbow Trout*,None,http://www.dec.ny.gov/outdoor/31439.html,Cortland,Shore Fishing - Public Fishing Rights,Public Easement,http://www.dec.ny.gov/docs/fish_marine_pdf/r7groutbrpfr.pdf,-76.265080086,42.74187912,"(42.74187912, -76.265080086)"
Owasco Inlet,Brown Trout* Rainbow Trout*,None,,Cayuga,Shore Fishing - Public Fishing Rights,Public Easement,http://www.dec.ny.gov/docs/fish_marine_pdf/r7owascoinpfr.pdf,-76.407167784,42.641946291,"(42.641946291, -76.407167784)"
Naples Creek,Brook Trout - Brown Trout - Rainbow Trout,None,http://www.dec.ny.gov/outdoor/31417.html,Ontario,Shore Fishing - Public Fishing Rights,Public Easement - High Tor State Wildlife Management Area (DEC),http://www.dec.ny.gov/docs/fish_marine_pdf/pfrnaplesck.pdf,-77.403606702,42.609479403,"(42.609479403, -77.403606702)"
Salmon Creek,Atlantic Salmon - Brown Trout* - Rainbow Trout* - Smallmouth Bass,None,http://www.dec.ny.gov/outdoor/31417.html,Tompkins,Shore Fishing - Public Fishing Rights,Public Easement,http://www.dec.ny.gov/docs/fish_marine_pdf/r7salcrekpfr.pdf,-76.538215641,42.550543308,"(42.550543308, -76.538215641)"
Fall Creek,Atlantic Salmon - Brook Trout* - Brown Trout* - Rainbow Trout - Smallmouth Bass,None,http://www.dec.ny.gov/outdoor/31417.html,Tompkins,Shore Fishing - Public Fishing Rights,Public Easement,http://www.dec.ny.gov/docs/fish_marine_pdf/r7fallcrpfr.pdf,-76.28312588,42.598995432,"(42.598995432, -76.28312588)"
Fall Creek (Upper),Brook Trout* - Brown Trout*,None,,Cayuga,Shore Fishing - Public Fishing Rights,Public Easement,http://www.dec.ny.gov/docs/fish_marine_pdf/r7fallcrpfr.pdf,-76.278994455,42.639803711,"(42.639803711, -76.278994455)"
Cayuga Inlet,Brown Trout - Rainbow Trout* - Atlantic Salmon,None,http://www.dec.ny.gov/outdoor/31417.html,Tompkins,Shore Fishing - Public Fishing Rights,Public Easement,http://www.dec.ny.gov/outdoor/72779.html,-76.554022279,42.368737364,"(42.368737364, -76.554022279)"
Cold Brook,Brown Trout - Rainbow Trout - Atlantic Salmon,None,http://www.dec.ny.gov/outdoor/31494.html,Steuben,Shore Fishing - Public Fishing Rights,Public Easement,http://www.dec.ny.gov/docs/fish_marine_pdf/pfrkeukainlt.pdf,-77.258398236,42.394874784,"(42.394874784, -77.258398236)"
Guyanoga Creek,Rainbow Trout,None,http://www.dec.ny.gov/outdoor/31417.html,Yates,Shore Fishing - Public Fishing Rights - Boat Launch (Trailer Improved),Public Easement - DEC Boat Launch,http://www.dec.ny.gov/docs/fish_marine_pdf/pfrgyanogack.pdf,-77.149554309,42.59980095,"(42.59980095, -77.149554309)"
Catharine Creek,Rainbow Trout,None,,Schuyler,Shore Fishing - Public Fishing Rights,Public Easement,http://www.dec.ny.gov/docs/fish_marine_pdf/pfrcathrneck.pdf,-76.843841906,42.32827481,"(42.32827481, -76.843841906)"
McCorn Creek,Brown Trout,None,http://www.dec.ny.gov/outdoor/31435.html,Chemung,Shore Fishing - Public Fishing Rights,Public Easement,http://www.dec.ny.gov/docs/fish_marine_pdf/pfrcayutack.pdf,-76.606082843,42.267612682,"(42.267612682, -76.606082843)"
Chemung River,Smallmouth Bass - Tiger Musky* -  Walleye - Carp - Channel Catfish,None,http://www.dec.ny.gov/outdoor/31435.html,Chemung,Boat Launch (Trailer Improved),DEC,http://www.dec.ny.gov/outdoor/23906.html,-76.865664903,42.082340095,"(42.082340095, -76.865664903)"
Cohocton River,Brook Trout - Brown Trout*,None,http://www.dec.ny.gov/outdoor/31494.html,Steuben,Shore Fishing - Public Fishing Rights,Public Easement,http://www.dec.ny.gov/docs/fish_marine_pdf/pfrcohoctriv.pdf,-77.349559895,42.357293382,"(42.357293382, -77.349559895)"
Neil Creek,Brown Trout,None,http://www.dec.ny.gov/outdoor/31494.html,Steuben,Shore Fishing - Public Fishing Rights,Public Easement,http://www.dec.ny.gov/docs/fish_marine_pdf/pfrneilcreek.pdf,-77.479958326,42.427631095,"(42.427631095, -77.479958326)"
Susquehanna River,Smallmouth Bass - Sunfish - Northern Pike - Walleye - Carp - Channel Catfish,None,http://www.dec.ny.gov/outdoor/31431.html,Broome,Boat Launch (Trailer Improved),DEC,http://www.dec.ny.gov/outdoor/42299.html,-75.60037003,42.193644482,"(42.193644482, -75.60037003)"
Tioughnioga River,Smallmouth Bass - Northern Pike - Walleye - Carp,None,http://www.dec.ny.gov/outdoor/31431.html,Broome,Boat Launch (Hand Launch),DEC,http://www.dec.ny.gov/outdoor/23910.html,-75.846199971,42.238251511,"(42.238251511, -75.846199971)"
Sangerfield River,Brown Trout* - Smallmouth Bass - Northern Pike - Walleye - Carp,None,http://www.dec.ny.gov/outdoor/31436.html,Chenango,Boat Launch (Hand Launch),DEC,http://www.dec.ny.gov/outdoor/66157.html,-75.540194217,42.718321946,"(42.718321946, -75.540194217)"
Otselic River,Brown Trout* - Walleye,None,http://www.dec.ny.gov/outdoor/31436.html,Chenango,Shore Fishing - Public Fishing Rights,Public Easement,http://www.dec.ny.gov/docs/fish_marine_pdf/r7otselripfr.pdf,-75.815287051,42.619864684,"(42.619864684, -75.815287051)"
Chenango River,Muskellunge - Northern Pike - Walleye - Carp,None,http://www.dec.ny.gov/outdoor/31436.html,Chenango,Boat Launch (Hand Launch),DEC,http://www.dec.ny.gov/outdoor/63442.html,-75.681330413,42.364385279,"(42.364385279, -75.681330413)"
Upper Peconic River,Largemouth Bass - Sunfish - Chain Pickerel,DEC Access permit required (631-444-0280).,http://www.dec.ny.gov/outdoor/31495.html,Suffolk,Shore Fishing - Boat Launch (Hand Launch),Otis Pike Preserve (DEC),http://www.dec.ny.gov/outdoor/23865.html,-72.743344951,40.905093268,"(40.905093268, -72.743344951)"
Connetquot River,Brook Trout* - Brown Trout* - Rainbow Trout*,Fishing pier available at state park. OPRHP permit required (631-669-1000).,http://www.dec.ny.gov/outdoor/31495.html,Suffolk,Shore Fishing,Connetquot River State Park,,-73.152134173,40.748092416,"(40.748092416, -73.152134173)"
Nissequogue River,Brook Trout* - Brown Trout* - Rainbow Trout*,Fishing pier available at state park. OPRHP permit required (631-669-1000).,http://www.dec.ny.gov/outdoor/31495.html,Suffolk,Shore Fishing - Boat Launch (Hand Launch),Caleb Smith State Park Preserve (New York State Park),http://www.dec.ny.gov/outdoor/23865.html,-73.227300031,40.846482971,"(40.846482971, -73.227300031)"
Saranac River,Brown Trout* - Rainbow Trout* - Smallmouth Bass - Largemouth Bass - Sunfish - Yellow Perch - Crappie - Northern Pike - Walleye,None,http://www.dec.ny.gov/outdoor/31437.html,Clinton,Shore Fishing - Public Fishing Rights,Public Easement,http://www.dec.ny.gov/docs/fish_marine_pdf/pfrsaranac.pdf,-73.811101127,44.604894425,"(44.604894425, -73.811101127)"
North Branch Saranac River,Brook Trout - Brown Trout*,None,http://www.dec.ny.gov/outdoor/31437.html,Clinton,Shore Fishing - Public Fishing Rights,Public Easement,http://www.dec.ny.gov/docs/fish_marine_pdf/pfrnbsaranac.pdf,-73.918238523,44.578672605,"(44.578672605, -73.918238523)"
Salmon River,Brook Trout - Brown Trout*,Camping available at state park.,,Clinton,Shore Fishing - Public Fishing Rights,Public Easement - Macomb Reservation State Park,http://www.dec.ny.gov/docs/fish_marine_pdf/pfrsalmonrc.pdf,-73.639830499,44.611594588,"(44.611594588, -73.639830499)"
Arnold Brook,Brook Trout - Brown Trout*,None,,Clinton,,,,-73.541982496,44.593677719,"(44.593677719, -73.541982496)"
Ausable River,Brown Trout* - Rainbow Trout*,None,http://www.dec.ny.gov/outdoor/31443.html,Clinton,Shore Fishing - Public Fishing Rights,Public Easement,http://www.dec.ny.gov/docs/fish_marine_pdf/pfrausable.pdf,-73.567463912,44.467972896,"(44.467972896, -73.567463912)"
West Branch Ausable River,Brook Trout* - Brown Trout* - Rainbow Trout*,Camping available at Wilmington Notch DEC Campground.,http://www.dec.ny.gov/outdoor/31443.html,Essex,Shore Fishing,Whiteface Mountain Ski Center (DEC),http://www.dec.ny.gov/docs/fish_marine_pdf/pfrwbausable.pdf,-73.859409331,44.354221132,"(44.354221132, -73.859409331)"
Chubb River,Brook Trout* - Brown Trout*,None,,Essex,Shore Fishing - Public Fishing Rights,Public Easement - High Peaks Wilderness (DEC),http://www.dec.ny.gov/lands/9164.html,-74.013997746,44.262759513,"(44.262759513, -74.013997746)"
Great Chazy River,Smallmouth Bass - Largemouth Bass - Sunfish - Yellow Perch - Muskellunge - Norhtern Pike - Chain Pickerel - Walleye - Carp,None,http://www.dec.ny.gov/outdoor/31510.html,Clinton,Boat Launch (Trailer Improved),New York State Parks,http://www.dec.ny.gov/outdoor/23904.html,-73.386724349,44.932212074,"(44.932212074, -73.386724349)"
North Branch Great Chazy River,Brown Trout* - Rainbow Trout* - Smallmouth Bass,None,,Clinton,Shore Fishing - Public Fishing Rights,Public Easement,http://www.dec.ny.gov/docs/fish_marine_pdf/pfrnbchazy.pdf,-73.774312288,44.905983443,"(44.905983443, -73.774312288)"
Carew Brook,Brown Trout,None,,Clinton,Shore Fishing - Public Fishing Rights,Public Easement,,-73.877224739,44.884344232,"(44.884344232, -73.877224739)"
Mill Brook,Brook Trout - Brown Trout*,None,,Essex,,,,-73.47960261,44.052709263,"(44.052709263, -73.47960261)"
Timmerman Creek,Brown Trout*,None,,Montgomery,,,,-74.683940305,43.017229195,"(43.017229195, -74.683940305)"
Spruce Creek,Brook Trout - Brown Trout*,None,,Herkimer,Shore Fishing - Public Fishing Rights,Public Easement,http://www.dec.ny.gov/docs/fish_marine_pdf/pfrecanadack.pdf,-74.775015894,43.122903578,"(43.122903578, -74.775015894)"
West Canada Creek,Brook Trout* - Brown Trout*,None,http://www.dec.ny.gov/outdoor/31453.html,Herkimer,Shore Fishing - Public Fishing Rights,Public Easement,http://www.dec.ny.gov/outdoor/9238.html,-75.106766237,43.237541746,"(43.237541746, -75.106766237)"
Oriskany Creek,Brook Trout - Brown Trout*,None,http://www.dec.ny.gov/outdoor/31470.html,Oneida,Shore Fishing - Public Fishing Rights,Public Easement,,-75.40071171,43.032236263,"(43.032236263, -75.40071171)"
Meco Creek,Brown Trout*,None,,Fulton,,,,-74.362197066,43.050413222,"(43.050413222, -74.362197066)"
Kayaderosseras Creek,Brown Trout* - Rainbow Trout,None,http://www.dec.ny.gov/outdoor/31482.html,Saratoga,Shore Fishing - Public Fishing Rights,Public Easement,http://www.dec.ny.gov/docs/fish_marine_pdf/pfrkayadeross.pdf,-73.877687077,43.138010643,"(43.138010643, -73.877687077)"
Batten Kill,Brook Trout - Brown Trout*,None,http://www.dec.ny.gov/outdoor/31502.html,Washington,Shore Fishing - Public Fishing Rights,Public Easement,http://www.dec.ny.gov/docs/fish_marine_pdf/pfrbattenkil.pdf,-73.272176385,43.101242681,"(43.101242681, -73.272176385)"
Schroon River,Brook Trout* - Brown Trout* - Rainbow Trout - Atlantic Salmon*,None,http://www.dec.ny.gov/outdoor/31501.html,Warren,Shore Fishing - Public Fishing Rights,Public Easement,http://www.dec.ny.gov/docs/fish_marine_pdf/pfrschroon.pdf,-73.731411667,43.607948869,"(43.607948869, -73.731411667)"
Glen Creek,Brown Trout*,None,,Warren,Shore Fishing,Wilcox Lake Wild Forest (DEC),http://www.dec.ny.gov/lands/22584.html,-73.88414694,43.580185017,"(43.580185017, -73.88414694)"
Mill Creek,Brook Trout* - Brown Trout*,None,,Warren,Shore Fishing - Public Fishing Rights,Public Easement,http://www.dec.ny.gov/docs/fish_marine_pdf/pfrmillckr5.pdf,-73.978398024,43.582728065,"(43.582728065, -73.978398024)"
Perch River,Smallmouth Bass - Largemouth Bass - Sunfish - Yellow Perch - Crappie - Northern Pike - Walleye - Carp,None,http://www.dec.ny.gov/outdoor/31423.html,Jefferson,Boat Launch (Hand Launch),DEC,http://www.dec.ny.gov/outdoor/23890.html,-76.077174546,44.00253222,"(44.00253222, -76.077174546)"
Black River,Brook Trout* - Brown Trout* - Rainbow Trout*,None,http://www.dec.ny.gov/outdoor/31470.html,Oneida,Shore Fishing - Public Fishing Rights,Public Easement,,-75.131830064,43.396659736,"(43.396659736, -75.131830064)"
Moose River,Brook Trout*,None,http://www.dec.ny.gov/outdoor/31453.html,Herkimer,Shore Fishing,Black River Wild Forest (DEC),http://www.dec.ny.gov/lands/49959.html,-75.102456443,43.611967601,"(43.611967601, -75.102456443)"
Stoney Creek,Brown Trout* - Steelhead* - Coho Salmon - Chinook Salmon,None,http://www.dec.ny.gov/outdoor/31420.html,Jefferson,Shore Fishing - Public Fishing Rights,Public Easement,http://www.dec.ny.gov/docs/fish_marine_pdf/pfrstonyck.pdf,-76.200169676,43.837479812,"(43.837479812, -76.200169676)"
Sandy Creek,Brown Trout* - Steelhead - Coho Salmon - Chinook Salmon,None,http://www.dec.ny.gov/outdoor/31420.html,Jefferson,Shore Fishing - Public Fishing Rights,Public Easement - Lakeview Wildlife Management Area (DEC),http://www.dec.ny.gov/docs/fish_marine_pdf/pfrsandyckr6.pdf,-76.185724398,43.744046271,"(43.744046271, -76.185724398)"
South Sandy Creek,Brown Trout - Steelhead* - Coho Salmon - Chinook Salmon*,None,http://www.dec.ny.gov/outdoor/31420.html,Jefferson,Shore Fishing - Public Fishing Rights,Public Easement,http://www.dec.ny.gov/docs/fish_marine_pdf/pfrssandyck.pdf,-76.146749092,43.726617029,"(43.726617029, -76.146749092)"
West Branch Fish Creek,Brook Trout - Brown Trout* - Atlantic Salmon*,None,http://www.dec.ny.gov/outdoor/31470.html,Oneida,Shore Fishing - Public Fishing Rights - Boat Launch (Hand Launch),Public Easement - DEC Boat Launch,http://www.dec.ny.gov/outdoor/23882.html,-75.812802499,43.389261426,"(43.389261426, -75.812802499)"
East Branch Fish Creek,Brook Trout - Brown Trout* - Atlantic Salmon*,None,http://www.dec.ny.gov/outdoor/31456.html,Lewis,Shore Fishing - Public Fishing Rights,Public Easement,http://www.dec.ny.gov/docs/fish_marine_pdf/pfrebfishcreek.pdf,-75.549433287,43.528358464,"(43.528358464, -75.549433287)"
Chaumont River,Smallmouth Bass - Largemouth Bass - Sunfish - Yellow Perch - Crappie - Northern Pike - Walleye - Carp - Channel Catfish,None,http://www.dec.ny.gov/outdoor/31423.html,Jefferson,Boat Launch (Trailer Improved),New York State Parks,http://www.dec.ny.gov/outdoor/23890.html,-76.148933498,44.068415416,"(44.068415416, -76.148933498)"
St Lawrence River,Smallmouth Bass - Largemouth Bass - Sunfish - Yellow Perch - Crappie - Muskellunge - Northern Pike - Walleye - Carp - Channel Catfish,None,http://www.dec.ny.gov/outdoor/31423.html,Jefferson,Boat Launch (Trailer Improved),DEC,http://www.dec.ny.gov/outdoor/29956.html,-76.321970536,44.133075265,"(44.133075265, -76.321970536)"
Grass River,Smallmouth Bass - Largemouth Bass - Sunfish - Yellow Perch - Crappie - Muskellunge - Northern Pike - Walleye - Carp,None,http://www.dec.ny.gov/outdoor/31493.html,St. Lawrence,Shore Fishing - Boat Launch (Trailer Improved),Upper and Lower Lakes Wildlife Management Area (DEC),http://www.dec.ny.gov/outdoor/23866.html,-75.227056126,44.62116423,"(44.62116423, -75.227056126)"
Fish Creek (St. Lawrence),Smallmouth Bass - Largemouth Bass - Sunfish - Yellow Perch - Crappie - Northern Pike - Walleye,None,http://www.dec.ny.gov/outdoor/31493.html,St. Lawrence,Shore Fishing - Boat Launch (Trailer Unimproved),Fish Creek Wildlife Management Area (DEC),http://www.dec.ny.gov/outdoor/9322.html,-75.583099831,44.481132348,"(44.481132348, -75.583099831)"
Indian River,Smallmouth Bass - Largemouth Bass - Sunfish - Yellow Perch - Crappie - Northern Pike - Walleye - Carp - Channel Catfish,None,http://www.dec.ny.gov/outdoor/31454.html,Jefferson,Shore Fishing - Boat Launch (Trailer Unimproved),Indian River State Wildlife Management Area (DEC),http://www.dec.ny.gov/outdoor/23890.html,-75.760508085,44.265146835,"(44.265146835, -75.760508085)"
Chateaugay River,Brook Trout* - Brown Trout* - Rainbow Trout* - Smallmouth Bass,None,http://www.dec.ny.gov/outdoor/31444.html,Franklin,Shore Fishing - Public Fishing Rights,Public Easement,http://www.dec.ny.gov/docs/fish_marine_pdf/pfrchateaugay.pdf,-74.094510485,44.925535788,"(44.925535788, -74.094510485)"
Trout River,Brown Trout*,None,http://www.dec.ny.gov/outdoor/31444.html,Franklin,,,,-74.293337254,44.918344554,"(44.918344554, -74.293337254)"
Salmon River,Brook Trout - Brown Trout* - Rainbow Trout*,None,http://www.dec.ny.gov/outdoor/31444.html,Franklin,Shore Fishing - Public Fishing Rights,Public Easement,http://www.dec.ny.gov/docs/fish_marine_pdf/pfrsalmonrf.pdf,-74.374592082,44.929322086,"(44.929322086, -74.374592082)"
Little Salmon River,Brook Trout - Brown Trout,None,http://www.dec.ny.gov/outdoor/31444.html,Franklin,Shore Fishing - Public Fishing Rights,Public Easement,http://www.dec.ny.gov/docs/fish_marine_pdf/pfrlitsalmon.pdf,-74.468205183,44.814920064,"(44.814920064, -74.468205183)"
St. Regis River,Brook Trout - Brown Trout* - Rainbow Trout*,None,http://www.dec.ny.gov/outdoor/31444.html,Franklin,Shore Fishing - Public Fishing Rights - Boat launch (Hand Launch),Public Easement - Debar Mountain Wild Forest (DEC) - DEC Boat Launch,http://www.dec.ny.gov/docs/fish_marine_pdf/pfrstregis.pdf,-74.47196149,44.659777959,"(44.659777959, -74.47196149)"
Batavia Kill,Brook Trout - Brown Trout* - Rainbow Trout,None,,Greene,Shore Fishing - Public Fishing Rights,Public Easement,http://www.dec.ny.gov/docs/fish_marine_pdf/pfrbataviak.pdf,-74.305872393,42.293045276,"(42.293045276, -74.305872393)"
Deer River,Brown Trout*,None,http://www.dec.ny.gov/outdoor/31444.html,Franklin,Shore Fishing - Public Fishing Rights,Public Easement - Deer River State Forest (DEC),http://www.dec.ny.gov/docs/fish_marine_pdf/pfrdeerriver.pdf,-74.501574916,44.730029173,"(44.730029173, -74.501574916)"
Ten Mile Creek,Brook Trout - Brown Trout* - Rainbow Trout,None,http://www.dec.ny.gov/outdoor/31441.html,Dutchess,Shore Fishing - Public Fishing Rights,Public Easement - Wassaic State Multiple Use Area (DEC),http://www.dec.ny.gov/docs/fish_marine_pdf/pfrtenmilewassaic.pdf,-73.575196222,41.774901231,"(41.774901231, -73.575196222)"
Delaware River (Upper),Brown Trout - Rainbow Trout - Smallmouth Bass - Walleye - Carp,None,http://www.dec.ny.gov/outdoor/31440.html,Delaware,Boat Launch (Hand Launch),DEC,http://www.dec.ny.gov/outdoor/23900.html,-75.276850723,41.935113637,"(41.935113637, -75.276850723)"
Delaware River (Lower),Smallmouth Bass - Muskellunge - Walleye - Striped Bass,None,http://www.dec.ny.gov/outdoor/31496.html,Sullivan,Boat Launch (Hand Launch),DEC,http://www.dec.ny.gov/outdoor/23864.html,-74.912555402,41.476434942,"(41.476434942, -74.912555402)"
Neversink River,Brook Trout - Brown Trout*,None,http://www.dec.ny.gov/outdoor/31496.html,Sullivan,Shore Fishing - Public Fishing Rights,Public Easement,http://www.dec.ny.gov/docs/fish_marine_pdf/pfrneversink.pdf,-74.609448532,41.781634451,"(41.781634451, -74.609448532)"
Mongaup River,Brown Trout*,None,http://www.dec.ny.gov/outdoor/31496.html,Sullivan,Shore Fishing,Thompson Park (Municipal),,-74.709546114,41.721313192,"(41.721313192, -74.709546114)"
Hudson River (Upper Hudson),Brown Trout* - Rainbow Trout*,None,,Warren,Shore Fishing - Public Fishing Rights,Public Easement - Vanderwhacker Mountain Wild Forest (DEC),http://www.dec.ny.gov/docs/fish_marine_pdf/pfrhudson.pdf,-74.034919779,43.737163196,"(43.737163196, -74.034919779)"
East Branch Delaware River (Upper),Brook Trout - Brown Trout*,NYCDEP permit required (1-800-574-LAND).,http://www.dec.ny.gov/outdoor/31440.html,Delaware,,,,-74.629618591,42.151605667,"(42.151605667, -74.629618591)"
East Branch Delaware River (Lower),Brook Trout - Brown Trout* - Rainbow Trout,None,http://www.dec.ny.gov/outdoor/31440.html,Delaware,Shore Fishing - Public Fishing Rights,Public Easement - Tomannex State Forest (DEC),http://www.dec.ny.gov/docs/fish_marine_pdf/pfreastbranch.pdf,-75.087162917,42.017273442,"(42.017273442, -75.087162917)"
Beaver Kill,Brown Trout* - Rainbow Trout,None,http://www.dec.ny.gov/outdoor/31440.html,Delaware,Shore Fishing - Public Fishing Rights,Public Easement,http://www.dec.ny.gov/docs/fish_marine_pdf/pfrbeaverkill.pdf,-75.023709933,41.96958342,"(41.96958342, -75.023709933)"
Willowemoc Creek,Brown Trout* - Rainbow Trout,None,http://www.dec.ny.gov/outdoor/31496.html,Sullivan,Shore Fishing - Public Fishing Rights,Public Easement,http://www.dec.ny.gov/docs/fish_marine_pdf/pfrwillocklb.pdf,-74.81217934,41.903289881,"(41.903289881, -74.81217934)"
West Branch Delaware River (Upper),Brook Trout - Brown Trout*,NYCDEP permit required (1-800-574-LAND).,http://www.dec.ny.gov/outdoor/31440.html,Delaware,Shore Fishing - Public Fishing Rights,Public Easement,http://www.dec.ny.gov/docs/fish_marine_pdf/pfrwestbranch.pdf,-74.693211738,42.366961925,"(42.366961925, -74.693211738)"
West Branch Delaware River (Lower),Brown Trout* - Rainbow Trout - Smallmouth Bass - Walleye,Anglers fishing for migratory marine species must enroll in the recreational marine fishing registry (518-402-8843).,http://www.dec.ny.gov/outdoor/31440.html,Delaware,Shore Fishing - Public Fishing Rights,Public Easement,http://www.dec.ny.gov/docs/fish_marine_pdf/pfrwestbranch.pdf,-75.407318767,42.074372406,"(42.074372406, -75.407318767)"
Hudson River (Lower),Smallmouth Bass - Largemouth Bass - Sunfish - Yellow Perch - Crappie - Tiger Musky - Northern Pike - Walleye - Carp - Channel Catfish - Striped bass,Anglers fishing for migratory marine species must enroll in the recreational marine fishing registry (518-402-8843).,http://www.dec.ny.gov/outdoor/31479.html,Albany,Shore Fishing - Boat Launch (Trailer Improved),Corning City Preserve (Municipal),http://www.dec.ny.gov/outdoor/23912.html,-73.740930806,42.657484231,"(42.657484231, -73.740930806)"
Rondout Creek,Smallmouth Bass - Largemouth Bass - Sunfish - Walleye,None,http://www.dec.ny.gov/outdoor/31500.html,Ulster,Boat Launch (Hand Launch),DEC,http://www.dec.ny.gov/outdoor/58871.html,-74.030132584,41.884866772,"(41.884866772, -74.030132584)"
Wallkill River,Smallmouth Bass - Walleye - Carp,Electric Motors Only.,http://www.dec.ny.gov/outdoor/31500.html,Ulster,Boat Launch (Hand Launch),DEC,http://www.dec.ny.gov/outdoor/58866.html,-74.085494448,41.802085397,"(41.802085397, -74.085494448)"
Esopus Creek,Brook Trout - Brown Trout* - Rainbow Trout,None,http://www.dec.ny.gov/outdoor/31500.html,Ulster,Shore Fishing - Public Fishing Rights,Public Easement,http://www.dec.ny.gov/docs/fish_marine_pdf/pfresopusck.pdf,-74.285666094,42.049169943,"(42.049169943, -74.285666094)"
Ramapo River,Brook Trout - Brown Trout* - Rainbow Trout*,None,,Orange,Shore Fishing - Public Fishing Rights,Public Easement - Harriman State Park,http://www.dec.ny.gov/docs/fish_marine_pdf/pfrramapo.pdf,-74.183770586,41.195726627,"(41.195726627, -74.183770586)"
East Branch Cazenovia Creek,Brown Trout*,None,http://www.dec.ny.gov/outdoor/31442.html,Erie,Shore Fishing,Emery County Park,,-78.587049709,42.715571068,"(42.715571068, -78.587049709)"
Schoharie Creek (Lower),Smallmouth Bass - Walleye - Carp,None,http://www.dec.ny.gov/outdoor/31464.html,Montgomery,Boat Launch (Hand Launch),DEC,http://www.dec.ny.gov/outdoor/23885.html,-74.257869822,42.804628354,"(42.804628354, -74.257869822)"
Canoga Creek,Brook Trout*,None,,Seneca,Shore Fishing,Canoga Marsh Wildlife Management Area (DEC),,-76.749289332,42.862553473,"(42.862553473, -76.749289332)"
West Kill,Brook Trout - Brown Trout* - Rainbow Trout,None,,Greene,Shore Fishing - Public Fishing Rights,Public Easement,http://www.dec.ny.gov/docs/fish_marine_pdf/pfrwestkill.pdf,-74.341047462,42.198013111,"(42.198013111, -74.341047462)"
East Kill,Brown Trout* - Rainbow Trout,None,,Greene,Shore Fishing - Public Fishing Rights,Public Easement,http://www.dec.ny.gov/docs/fish_marine_pdf/pfrschoharie.pdf,-74.310299294,42.242318111,"(42.242318111, -74.310299294)"
Hoosic River,Brown Trout - Rainbow Trout - Smallmouth Bass - Carp,None,http://www.dec.ny.gov/outdoor/31479.html,Rensselear,Shore Fishing - Public Fishing Rights,Public Easement,http://www.dec.ny.gov/docs/fish_marine_pdf/pfrhoosic.pdf,-73.402770331,42.950019683,"(42.950019683, -73.402770331)"
Roeliff Jansen Kill,Brook Trout - Brown Trout*,None,http://www.dec.ny.gov/outdoor/31441.html,Dutchess,Shore Fishing - Public Fishing Rights,Public Easement,http://www.dec.ny.gov/docs/fish_marine_pdf/pfrrojankil.pdf,-73.661433506,41.99745035,"(41.99745035, -73.661433506)"
Catskill Creek,Brown Trout*,None,,Greene,Shore Fishing - Public Fishing Rights,Public Easement,http://www.dec.ny.gov/docs/fish_marine_pdf/pfrcatskillc.pdf,-74.132866461,42.402756126,"(42.402756126, -74.132866461)"
Kinderhook Creek,Brook Trout - Brown Trout*,None,http://www.dec.ny.gov/outdoor/31438.html,Columbia,Shore Fishing - Public Fishing Rights,Public Easement,http://www.dec.ny.gov/docs/fish_marine_pdf/pfrkinderhook.pdf,-73.452182076,42.492412956,"(42.492412956, -73.452182076)"
Poesten Kill,Brook Trout - Brown Trout,None,,Rensselear,Shore Fishing - Public Fishing Rights,Public Easement,http://www.dec.ny.gov/docs/fish_marine_pdf/pfrPoestenk.pdf,-73.582754945,42.70582836,"(42.70582836, -73.582754945)"
Schoharie Creek (Upper),Brook Trout - Brown Trout*,None,,Greene,Shore Fishing - Public Fishing Rights,Public Easement,http://www.dec.ny.gov/docs/fish_marine_pdf/pfrschoharie.pdf,-74.399949217,42.283423399,"(42.283423399, -74.399949217)"
Walloomsac River,Brown Trout*,None,,Rensselear,,,,-73.344200937,42.926661166,"(42.926661166, -73.344200937)"
Little Hoosic River,Brown Trout,None,http://www.dec.ny.gov/outdoor/31479.html,Rensselear,Shore Fishing - Public Fishing Rights,Public Easement,http://www.dec.ny.gov/docs/fish_marine_pdf/pfrhoosic.pdf,-73.36211594,42.731821699,"(42.731821699, -73.36211594)"
West Branch Croton River,Brown Trout*,None,http://www.dec.ny.gov/outdoor/31478.html,Putnam,,,,-73.732240069,41.447425921,"(41.447425921, -73.732240069)"
Unadilla River,Brown Trout*,None,,Otsego,Shore Fishing - Public Fishing Rights,Public Easement,http://www.dec.ny.gov/docs/fish_marine_pdf/pfrwhartonck.pdf,-75.32751285,42.625903909,"(42.625903909, -75.32751285)"
East Branch Croton River,Brown Trout* - Rainbow Trout*,None,http://www.dec.ny.gov/outdoor/31478.html,Putnam,,,,-73.614916399,41.393534351,"(41.393534351, -73.614916399)"
Schenevus Creek,Brook Trout - Brown Trout*,None,,Otsego,Shore Fishing - Public Fishing Rights,Public Easement,http://www.dec.ny.gov/docs/fish_marine_pdf/pfrschenevus.pdf,-74.908648783,42.518309018,"(42.518309018, -74.908648783)"
Charlotte Creek,Brook Trout - Brown Trout*,None,,Delaware,Shore Fishing - Public Fishing Rights,Public Easement,http://www.dec.ny.gov/docs/fish_marine_pdf/pfrcharlotte.pdf,-74.797009563,42.495790582,"(42.495790582, -74.797009563)"
Butternut Creek,Brook Trout - Brown Trout*,None,,Otsego,Shore Fishing - Public Fishing Rights,Public Easement,http://www.dec.ny.gov/docs/fish_marine_pdf/pfrbuternut.pdf,-75.1538062,42.650821229,"(42.650821229, -75.1538062)"
Wharton Creek,Brook Trout - Brown Trout*,None,,Otsego,Shore Fishing - Public Fishing Rights,Public Easement,http://www.dec.ny.gov/docs/fish_marine_pdf/pfrwhartonck.pdf,-75.30711073,42.625786195,"(42.625786195, -75.30711073)"
Otego Creek,Brook Trout - Brown Trout*,None,,Otsego,Shore Fishing - Public Fishing Rights,Public Easement,http://www.dec.ny.gov/docs/fish_marine_pdf/pfrotegock.pdf,-75.108053618,42.470664677,"(42.470664677, -75.108053618)"
Chautauqua Creek,Steelhead*,None,http://www.dec.ny.gov/outdoor/31420.html,Chautauqua,Shore Fishing - Public Fishing Rights,Public Easement,http://www.dec.ny.gov/docs/fish_marine_pdf/chautauquacreek.pdf,-79.578375466,42.30582201,"(42.30582201, -79.578375466)"
Niagara River (Lower),Brown Trout* - Steelhead* - Chinook Salmon* - Coho Salmon* - Lake Trout - Smallmouth Bass - Yellow Perch - Muskellunge - Walleye* - Carp,None,http://www.dec.ny.gov/outdoor/31425.html,Niagara,Shore Fishing - Boat Launch (Trailer Improved),Fort Niagara State Park,http://www.dec.ny.gov/outdoor/67913.html,-79.059249369,43.26100669,"(43.26100669, -79.059249369)"
Eighteen Mile Creek,Brown Trout* - Steelhead* - Smallmouth Bass,None,http://www.dec.ny.gov/outdoor/31420.html,Erie,Shore Fishing - Public Fishing Rights,Public Easement,http://www.dec.ny.gov/docs/fish_marine_pdf/eighteenmilesouth.pdf,-78.940697332,42.699249465,"(42.699249465, -78.940697332)"
Cattaraugus Creek (Upper),Brown Trout* - Rainbow Trout,None,http://www.dec.ny.gov/outdoor/31442.html,Erie,Shore Fishing - Public Fishing Rights,Public Easement,http://www.dec.ny.gov/docs/fish_marine_pdf/cattcreekhosmer.pdf,-78.478235329,42.534704298,"(42.534704298, -78.478235329)"
Cattaraugus Creek (Lower),Brown Trout* - Steelhead* - Smallmouth Bass - Channel Catfish,None,http://www.dec.ny.gov/outdoor/31420.html,Cattaraugus,Boat Launch (Hand Launch),DEC,http://www.dec.ny.gov/docs/fish_marine_pdf/cattcreeksteelhead.pdf,-78.812560443,42.456066652,"(42.456066652, -78.812560443)"
Lime Lake Outlet,Brown Trout - Rainbow Trout,None,http://www.dec.ny.gov/outdoor/31432.html,Cattaraugus,Shore Fishing - Public Fishing Rights,Public Easement,http://www.dec.ny.gov/docs/fish_marine_pdf/limelakemckin.pdf,-78.481163775,42.45489038,"(42.45489038, -78.481163775)"
Hosmer Brook,Brown Trout - Rainbow Trout,None,http://www.dec.ny.gov/outdoor/31442.html,Erie,Shore Fishing - Public Fishing Rights,Public Easement,http://www.dec.ny.gov/docs/fish_marine_pdf/cattcreekhosmer.pdf,-78.504320212,42.541005854,"(42.541005854, -78.504320212)"
Clear Creek (Arcade),Brown Trout - Rainbow Trout,None,http://www.dec.ny.gov/outdoor/31432.html,Cattaraugus,Shore Fishing - Public Fishing Rights,Public Easement,http://www.dec.ny.gov/docs/fish_marine_pdf/clearcreekarcade.pdf,-78.358837963,42.485671835,"(42.485671835, -78.358837963)"
Canadaway Creek,Brown Trout* - Steelhead* - Smallmouth Bass,None,http://www.dec.ny.gov/outdoor/31420.html,Chautauqua,Shore Fishing - Public Fishing Rights,Public Easement,http://www.dec.ny.gov/docs/fish_marine_pdf/canadawaycreek.pdf,-79.364645774,42.475495688,"(42.475495688, -79.364645774)"
Genesee River (Upper),Brown Trout* - Rainbow Trout* - Smallmouth Bass,None,http://www.dec.ny.gov/outdoor/31494.html,Allegany,Shore Fishing - Public Fishing Rights,Public Easement,http://www.dec.ny.gov/docs/fish_marine_pdf/geneseeriver.pdf,-77.985309157,42.171235454,"(42.171235454, -77.985309157)"
Wiscoy Creek,Brook Trout - Brown Trout,None,http://www.dec.ny.gov/outdoor/31505.html,Wyoming,Shore Fishing - Public Fishing Rights,Public Easement,http://www.dec.ny.gov/docs/fish_marine_pdf/wiscoy.pdf,-78.244544594,42.580256225,"(42.580256225, -78.244544594)"
East Koy Creek,Brown Trout*,None,http://www.dec.ny.gov/outdoor/31505.html,Wyoming,Shore Fishing - Public Fishing Rights,Public Easement,http://www.dec.ny.gov/docs/fish_marine_pdf/eastkoycreek.pdf,-78.095920517,42.535585592,"(42.535585592, -78.095920517)"
Eighteen Mile Creek,Brown Trout - Steelhead* - Atlantic Salmon - Chinook Salmon* - Coho Salmon* - Smallmouth Bass - Largemouth Bass - Sunfish - Yellow Perch - Crappie - Northern Pike - Carp - Channel Catfish,None,http://www.dec.ny.gov/outdoor/31420.html,Niagara,Shore Fishing,Fisherman's Park (Municipal),http://www.dec.ny.gov/outdoor/26912.html,-78.715370228,43.317312455,"(43.317312455, -78.715370228)"
Allegheny River,Smallmouth Bass - Muskellunge* - Northern Pike - Walleye - Carp,None,http://www.dec.ny.gov/outdoor/31432.html,Cattaraugus,Boat Launch (Hand Launch),DEC,http://www.dec.ny.gov/outdoor/26987.html,-78.529566849,42.10167981,"(42.10167981, -78.529566849)"
Tonawanda Creek (Barge Canal),Smallmouth Bass - Largemouth Bass - Sunfish - Northern  Pike - Walleye - Carp,None,,Niagara,Shore Fishing - Boat Launch (Trailer Improved),West Canal County Park,,-78.821887614,43.051960018,"(43.051960018, -78.821887614)"
Niagara River (Upper),Rainbow Trout - Smallmouth Bass - Largemouth Bass - Sunfish - Yellow Perch - Muskellunge - Northern Pike - Walleye - Carp,Marina available at state park.,http://www.dec.ny.gov/outdoor/31428.html,Erie,Shore Fishing - Boat Launch (Trailer Improved),Big Six Mile Creek Marina (New York State Park),http://www.dec.ny.gov/outdoor/23898.html,-79.01179447,43.024306611,"(43.024306611, -79.01179447)"
Conewango Creek,Smallmouth Bass - Largemouth Bass - Muskellunge - Northern Pike. Walleye - Carp,None,,Chautauqua,Shore Fishing,Conewango Swamp Wildlife Management Area (DEC),http://www.dec.ny.gov/outdoor/26987.html,-79.037127689,42.186863764,"(42.186863764, -79.037127689)"
Quaker Run,Brook Trout - Brown Trout*,Camping available at state park.,http://www.dec.ny.gov/outdoor/31432.html,Cattaraugus,Shore Fishing,Allegany State Park,,-78.811538299,42.011411954,"(42.011411954, -78.811538299)"
Ischua Creek,Brook Trout* - Brown Trout*,None,http://www.dec.ny.gov/outdoor/31432.html,Cattaraugus,Shore Fishing - Public Fishing Rights,Public Easement,http://www.dec.ny.gov/docs/fish_marine_pdf/ischuacreek.pdf,-78.46307783,42.335441593,"(42.335441593, -78.46307783)"
Red House Brook,Brook Trout* - Brown Trout*,Camping available at state park.,http://www.dec.ny.gov/outdoor/31432.html,Cattaraugus,Shore Fishing,Allegany State Park,,-78.723454083,42.033562728,"(42.033562728, -78.723454083)"
Cassadaga Creek,Smallmouth Bass - Muskellunge - Northern Pike,None,,Chautauqua,Shore Fishing - Public Fishing Rights,Public Easement,http://www.dec.ny.gov/docs/fish_marine_pdf/cassadagack.pdf,-79.298971392,42.312184901,"(42.312184901, -79.298971392)"
Goose Creek,Brook Trout* - Brown Trout*,None,http://www.dec.ny.gov/outdoor/31420.html,Chautauqua,Shore Fishing - Public Fishing Rights,Public Easement,http://www.dec.ny.gov/docs/fish_marine_pdf/goosecreek.pdf,-79.474890452,42.094907888,"(42.094907888, -79.474890452)"
Clear Creek (Ellington),Brown Trout,None,http://www.dec.ny.gov/outdoor/31420.html,Chautauqua,Shore Fishing - Public Fishing Rights,Public Easement,http://www.dec.ny.gov/docs/fish_marine_pdf/clearcreekelling.pdf,-79.142188487,42.248976693,"(42.248976693, -79.142188487)"
Oswegatchie River,Smallmouth Bass - Largemouth Bass - Sunfish - Yellow Perch - Crappie - Northern Pike - Walleye - Carp - Channel Catfish,Camping available at state park.,http://www.dec.ny.gov/outdoor/31493.html,St. Lawrence,Shore Fishing - Boat Launch (Trailer Improved),Eel Weir State park,http://www.dec.ny.gov/outdoor/23866.html,-75.474423958,44.630141028,"(44.630141028, -75.474423958)"
Genesee River (Lower),Brown Trout - Steelhead* - Coho Salmon* - Chinook Salmon* - Walleye - Carp,None,http://www.dec.ny.gov/outdoor/31420.html,Monroe,Boat Launch (Trailer Improved),Ontario Beach County Park,http://www.dec.ny.gov/docs/fish_marine_pdf/pfrgeneseriv.pdf,-77.608477482,43.254014557,"(43.254014557, -77.608477482)"
East Branch Owego Creek,Brook Trout - Brown Trout*,None,http://www.dec.ny.gov/outdoor/31498.html,Tioga,Shore Fishing - Public Fishing Rights,Public Easement - Michigan Hill State Forest (DEC),http://www.dec.ny.gov/docs/fish_marine_pdf/r7ebrowegpfr.pdf,-76.192311456,42.394896233,"(42.394896233, -76.192311456)"
Susquehanna River,Smallmouth Bass - Sunfish - Muskellunge - Northern Pike - Walleye - Carp - Channel Catfish,None,,Otsego,Boat Launch (Hand Launch),DEC,http://www.dec.ny.gov/outdoor/42299.html,-75.099795797,42.441881624,"(42.441881624, -75.099795797)"
Mohawk River,Smallmouth Bass - Largemouth Bass - Sunfish - Yellow Perch - Crappie - Tiger Musky* - Northern Pike - Walleye - Carp,None,http://www.dec.ny.gov/outdoor/31470.html,Oneida,Boat Launch (Hand Launch),DEC,,-75.325662919,43.16536357,"(43.16536357, -75.325662919)"
Massapequa Creek,Brown Trout* - Rainbow Trout*,None,http://www.dec.ny.gov/outdoor/31466.html,Nassau,Shore Fishing,Massapequa County Preserve (County Park),,-73.459834106,40.682980209,"(40.682980209, -73.459834106)"
East Branch Ausable River,Brook Trout* - Brown Trout* - Rainbow Trout*,None,http://www.dec.ny.gov/outdoor/31443.html,Essex,Shore Fishing - Public Fishing Rights,Public Easement,http://www.dec.ny.gov/docs/fish_marine_pdf/pfrebausable.pdf,-73.709228364,44.388793371,"(44.388793371, -73.709228364)"
Cold Brook,Brook Trout,None,,Herkimer,Shore Fishing - Public Fishing Rights,Public Easement,,-74.762287056,43.145357176,"(43.145357176, -74.762287056)"
Trammel Creek,Brook Trout,None,,Herkimer,Shore Fishing - Public Fishing Rights,Public Easement,http://www.dec.ny.gov/docs/fish_marine_pdf/pfrecanadack.pdf,-74.709191549,43.187781202,"(43.187781202, -74.709191549)"
Woodhull Creek,Brook Trout,None,,Oneida,Shore Fishing - Public Fishing Rights,Public Easement,http://www.dec.ny.gov/docs/fish_marine_pdf/pfrwoodhullck.pdf,-75.172557964,43.463330598,"(43.463330598, -75.172557964)"
Raystone Creek,Brook Trout,None,http://www.dec.ny.gov/outdoor/31454.html,Jefferson,Shore Fishing,Winona State Forest (DEC),,-75.946453998,43.735181544,"(43.735181544, -75.946453998)"
Crystal Creek,Brook Trout - Brown Trout - Rainbow Trout,None,,Lewis,Shore Fishing - Public Fishing Rights,Public Easement,,-75.399831197,43.83628139,"(43.83628139, -75.399831197)"
Fish Creek,Brook Trout - Brown Trout,None,,Lewis,Shore Fishing,Independence River Wild Forest (DEC),http://www.dec.ny.gov/lands/22574.html,-75.23988562,43.681656479,"(43.681656479, -75.23988562)"
South Branch Grass River,Brook Trout - Brown Trout,None,,St. Lawrence,Shore Fishing,Grasse River Wild Forest (DEC),http://www.dec.ny.gov/lands/22575.html,-74.975842665,44.28623731,"(44.28623731, -74.975842665)"
Little River,Brook Trout - Brown Trout,None,,St. Lawrence,Shore Fishing - Public Fishing Rights,Public Easement,http://www.dec.ny.gov/docs/fish_marine_pdf/pfrlittler.pdf,-75.064302528,44.194093742,"(44.194093742, -75.064302528)"
Marble River,Brook Trout* - Brown Trout* - Rainbow Trout*,None,http://www.dec.ny.gov/outdoor/31444.html,Franklin,Shore Fishing - Public Fishing Rights,Public Easement,http://www.dec.ny.gov/docs/fish_marine_pdf/pfrchateaugay.pdf,-74.070166392,44.938765922,"(44.938765922, -74.070166392)"
Elm Creek,Brown Trout,None,http://www.dec.ny.gov/outdoor/31432.html,Cattaraugus,Shore Fishing - Public Fishing Rights,Public Easement,http://www.dec.ny.gov/docs/fish_marine_pdf/littleconewangock.pdf,-78.964314103,42.161026511,"(42.161026511, -78.964314103)"
Skinner Creek,Steelhead - Chinook Salmon,None,http://www.dec.ny.gov/outdoor/31420.html,Jefferson,Shore Fishing - Public Fishing Rights,Public Easement,http://www.dec.ny.gov/docs/fish_marine_pdf/pfrskinnerck.pdf,-76.102240571,43.696007568,"(43.696007568, -76.102240571)"
Lindsey Creek,Steelhead - Chinook Salmon,None,http://www.dec.ny.gov/outdoor/31420.html,Jefferson,Shore Fishing - Public Fishing Rights,Public Easement,http://www.dec.ny.gov/docs/fish_marine_pdf/pfrskinnerck.pdf,-76.129015241,43.678016073,"(43.678016073, -76.129015241)"
Cayuta Creek,Brown Trout* - Sunfish,None,http://www.dec.ny.gov/outdoor/31491.html,Schuyler,Shore Fishing - Public Fishing Rights,Public Easement,http://www.dec.ny.gov/docs/fish_marine_pdf/pfrcayutack.pdf,-76.682587611,42.268607394,"(42.268607394, -76.682587611)"
Oatka Creek,Brown Trout*,None,http://www.dec.ny.gov/outdoor/31462.html,Monroe,Shore Fishing - Public Fishing Rights - Boat Launch (Hand Launch),Public Easement - DEC Boat Launch,http://www.dec.ny.gov/docs/fish_marine_pdf/pfroatkacreek.pdf,-77.861983259,42.995831451,"(42.995831451, -77.861983259)"
Butternut Creek,Brook Trout - Brown Trout*,None,http://www.dec.ny.gov/outdoor/31471.html,Onondaga,Shore Fishing - Public Fishing Rights,Public Easement,http://www.dec.ny.gov/docs/fish_marine_pdf/r7buttnutpfr.pdf,-76.071802347,42.907448391,"(42.907448391, -76.071802347)"
Seneca River,Smallmouth Bass - Largemouth Bass - Sunfish - Yellow Perch - Crappie - Tiger Musky* - Northern Pike - Walleye - Carp - Channel Catfish,None,,Cayuga,Boat Launch (Hand Launch),DEC,http://www.dec.ny.gov/outdoor/66680.html,-76.514288087,43.075969728,"(43.075969728, -76.514288087)"
Chemung River,Smallmouth Bass - Tiger Musky* -  Walleye - Carp - Channel Catfish,None,http://www.dec.ny.gov/outdoor/31435.html,Chemung,Boat Launch (Trailer Improved),DEC,http://www.dec.ny.gov/outdoor/23906.html,-76.817198164,42.082901848,"(42.082901848, -76.817198164)"
Chemung River,Smallmouth Bass - Tiger Musky* -  Walleye - Carp - Channel Catfish,None,http://www.dec.ny.gov/outdoor/31435.html,Chemung,Boat Launch (Trailer Improved),DEC,http://www.dec.ny.gov/outdoor/23906.html,-76.779985774,42.081017495,"(42.081017495, -76.779985774)"
Chemung River,Smallmouth Bass - Tiger Musky* -  Walleye - Carp - Channel Catfish,None,http://www.dec.ny.gov/outdoor/31435.html,Chemung,Boat Launch (Trailer Improved),DEC,http://www.dec.ny.gov/outdoor/23906.html,-76.723268419,42.017687092,"(42.017687092, -76.723268419)"
Chemung River,Smallmouth Bass - Tiger Musky* -  Walleye - Carp - Channel Catfish,None,http://www.dec.ny.gov/outdoor/31435.html,Chemung,Boat Launch (Trailer Improved),DEC,http://www.dec.ny.gov/outdoor/23906.html,-76.633688086,42.00302355,"(42.00302355, -76.633688086)"
Chemung River,Smallmouth Bass - Tiger Musky* -  Walleye - Carp - Channel Catfish,None,http://www.dec.ny.gov/outdoor/31435.html,Chemung,Boat Launch (Trailer Improved),DEC,http://www.dec.ny.gov/outdoor/23906.html,-76.932646575,42.121335045,"(42.121335045, -76.932646575)"
Chemung River,Smallmouth Bass - Tiger Musky* -  Walleye - Carp - Channel Catfish,None,http://www.dec.ny.gov/outdoor/31435.html,Chemung,Boat Launch (Trailer Improved),DEC,http://www.dec.ny.gov/outdoor/23906.html,-76.951560082,42.12434275,"(42.12434275, -76.951560082)"
Chemung River,Smallmouth Bass - Tiger Musky* -  Walleye - Carp - Channel Catfish,None,http://www.dec.ny.gov/outdoor/31494.html,Steuben,Boat Launch (Hand Launch),DEC,http://www.dec.ny.gov/outdoor/23867.html,-77.005565503,42.115777623,"(42.115777623, -77.005565503)"
Cohocton River,Brook Trout - Brown Trout*,None,http://www.dec.ny.gov/outdoor/31494.html,Steuben,Shore Fishing - Public Fishing Rights,Public Easement,http://www.dec.ny.gov/docs/fish_marine_pdf/pfrcohoctriv.pdf,-77.457560572,42.437261119,"(42.437261119, -77.457560572)"
Susquehanna River,Smallmouth Bass - Sunfish - Northern Pike - Walleye - Carp - Channel Catfish,None,http://www.dec.ny.gov/outdoor/31431.html,Broome,Boat Launch (Trailer Improved),DEC,http://www.dec.ny.gov/outdoor/42299.html,-75.647377492,42.123912911,"(42.123912911, -75.647377492)"
Susquehanna River,Smallmouth Bass - Sunfish - Northern Pike - Walleye - Carp - Channel Catfish,None,,Otsego,Boat Launch (Hand Launch),DEC,http://www.dec.ny.gov/outdoor/42299.html,-75.200778251,42.37722182,"(42.37722182, -75.200778251)"
Susquehanna River,Smallmouth Bass - Sunfish - Northern Pike - Walleye - Carp - Channel Catfish,None,,Otsego,Boat Launch (Hand Launch),DEC,http://www.dec.ny.gov/outdoor/42299.html,-75.414177322,42.315136051,"(42.315136051, -75.414177322)"
Susquehanna River,Smallmouth Bass - Sunfish - Northern Pike - Walleye - Carp - Channel Catfish,None,http://www.dec.ny.gov/outdoor/31436.html,Chenango,Boat Launch (Trailer Improved),DEC,http://www.dec.ny.gov/outdoor/42299.html,-75.523512866,42.227911346,"(42.227911346, -75.523512866)"
Susquehanna River,Smallmouth Bass - Sunfish - Northern Pike - Walleye - Carp - Channel Catfish,None,,Delaware,Boat Launch (Hand Launch),DEC,http://www.dec.ny.gov/outdoor/42299.html,-75.323522111,42.320681805,"(42.320681805, -75.323522111)"
Tioughnioga River,Smallmouth Bass - Northern Pike - Walleye - Carp,None,http://www.dec.ny.gov/outdoor/31439.html,Cortland,Shore Fishing - Public Fishing Rights,Public Easement,http://www.dec.ny.gov/docs/fish_marine_pdf/r7tiouripfr.pdf,-76.074395382,42.491709174,"(42.491709174, -76.074395382)"
Chenango River,Muskellunge - Northern Pike - Walleye - Carp,None,http://www.dec.ny.gov/outdoor/31436.html,Chenango,Boat Launch (Hand Launch),DEC,http://www.dec.ny.gov/outdoor/63442.html,-75.545790298,42.472548816,"(42.472548816, -75.545790298)"
Chenango River,Muskellunge - Northern Pike - Walleye - Carp,None,http://www.dec.ny.gov/outdoor/31436.html,Chenango,Boat Launch (Hand Launch),DEC,http://www.dec.ny.gov/outdoor/63442.html,-75.513107368,42.52378793,"(42.52378793, -75.513107368)"
Chenango River,Muskellunge - Northern Pike - Walleye - Carp,None,http://www.dec.ny.gov/outdoor/31436.html,Chenango,Boat Launch (Hand Launch),DEC,http://www.dec.ny.gov/outdoor/63442.html,-75.51039674,42.67881805,"(42.67881805, -75.51039674)"
Chenango River,Brown Trout,None,http://www.dec.ny.gov/outdoor/31460.html,Madison,Shore Fishing - Public Fishing Rights,Public Easement,http://www.dec.ny.gov/outdoor/63442.html,-75.608074811,42.859004393,"(42.859004393, -75.608074811)"
Salmon River,Brown Trout* - Steelhead* - Chinook Salmon* - Coho Salmon* - Atlantic Salmon* - Smallmouth Bass,Camping available at state park.,,Oswego,Shore Fishing,Selkirk Shores State Park,http://www.dec.ny.gov/docs/fish_marine_pdf/r7salrivpfr.pdf,-76.203504438,43.567459626,"(43.567459626, -76.203504438)"
Carmans River,Brook Trout* - Brown Trout* - Rainbow Trout*,Tidal,http://www.dec.ny.gov/outdoor/31495.html,Suffolk,Boat Launch (Hand Launch),DEC,http://www.dec.ny.gov/outdoor/23865.html,-72.883488915,40.801573033,"(40.801573033, -72.883488915)"
Nissequogue River,Brook Trout* - Brown Trout* - Rainbow Trout*,Tidal,http://www.dec.ny.gov/outdoor/31495.html,Suffolk,Shore Fishing - Boat Launch (Hand Launch),Suffolk County Park,http://www.dec.ny.gov/outdoor/23865.html,-73.210978492,40.857799176,"(40.857799176, -73.210978492)"
Nissequogue River,Brook Trout* - Brown Trout* - Rainbow Trout*,Tidal - Town park permit required.,http://www.dec.ny.gov/outdoor/31495.html,Suffolk,Boat Launch (Hand Launch),Municipal,http://www.dec.ny.gov/outdoor/23865.html,-73.200498701,40.863841594,"(40.863841594, -73.200498701)"
Saranac River,Atlantic Salmon - Brown Trout - Rainbow Trout - Smallmouth Bass - Largemouth Bass - Sunfish - Yellow Perch - Crappie - Northern Pike - Walleye,None,http://www.dec.ny.gov/outdoor/31437.html,Clinton,Shore Fishing - Public Fishing Rights,Public Easement,http://www.dec.ny.gov/docs/fish_marine_pdf/pfrsaranac.pdf,-73.449905785,44.689202541,"(44.689202541, -73.449905785)"
Salmon River,Brook Trout - Brown Trout*,None,,Clinton,Shore Fishing - Public Fishing Rights,Public Easement,http://www.dec.ny.gov/docs/fish_marine_pdf/pfrsalmonrc.pdf,-73.695253902,44.590756132,"(44.590756132, -73.695253902)"
West Branch Ausable River,Brook Trout* - Brown Trout* - Rainbow Trout*,None,http://www.dec.ny.gov/outdoor/31443.html,Essex,Shore Fishing,Saranac Lake Wild Forest (DEC),http://www.dec.ny.gov/docs/fish_marine_pdf/pfrwbausable.pdf,-73.915564611,44.310743575,"(44.310743575, -73.915564611)"
North Branch Great Chazy River,Brown Trout* - Rainbow Trout* - Smallmouth Bass,None,,Clinton,Shore Fishing - Public Fishing Rights,Public Easement,http://www.dec.ny.gov/docs/fish_marine_pdf/pfrnbchazy.pdf,-73.874794684,44.884652244,"(44.884652244, -73.874794684)"
West Canada Creek,Brook Trout* - Brown Trout*,None,http://www.dec.ny.gov/outdoor/31453.html,Herkimer,Shore Fishing - Public Fishing Rights,Public Easement,http://www.dec.ny.gov/outdoor/9238.html,-74.996086087,43.16332365,"(43.16332365, -74.996086087)"
West Canada Creek,Brook Trout* - Brown Trout*,None,http://www.dec.ny.gov/outdoor/31453.html,Herkimer,Shore Fishing - Public Fishing Rights,Public Easement,http://www.dec.ny.gov/outdoor/9238.html,-74.983779328,43.085461991,"(43.085461991, -74.983779328)"
Oriskany Creek,Brook Trout - Brown Trout*,None,http://www.dec.ny.gov/outdoor/31460.html,Madison,Shore Fishing - Public Fishing Rights,Public Easement,,-75.483751226,42.927563542,"(42.927563542, -75.483751226)"
Kayaderosseras Creek,Brown Trout* - Rainbow Trout,None,http://www.dec.ny.gov/outdoor/31482.html,Saratoga,Shore Fishing - Public Fishing Rights,Public Easement,http://www.dec.ny.gov/docs/fish_marine_pdf/pfrkayadeross.pdf,-73.856227958,43.191825316,"(43.191825316, -73.856227958)"
Kayaderosseras Creek,Brown Trout* - Rainbow Trout,None,http://www.dec.ny.gov/outdoor/31482.html,Saratoga,Shore Fishing - Public Fishing Rights,Public Easement,http://www.dec.ny.gov/docs/fish_marine_pdf/pfrkayadeross.pdf,-73.877687077,43.138010643,"(43.138010643, -73.877687077)"
Kayaderosseras Creek,Brown Trout* - Rainbow Trout,None,http://www.dec.ny.gov/outdoor/31482.html,Saratoga,Shore Fishing - Public Fishing Rights,Public Easement,http://www.dec.ny.gov/docs/fish_marine_pdf/pfrkayadeross.pdf,-73.917898397,43.052586965,"(43.052586965, -73.917898397)"
Kayaderosseras Creek,Brown Trout* - Rainbow Trout,None,http://www.dec.ny.gov/outdoor/31482.html,Saratoga,Shore Fishing - Public Fishing Rights,Public Easement,http://www.dec.ny.gov/docs/fish_marine_pdf/pfrkayadeross.pdf,-73.866740662,43.031692383,"(43.031692383, -73.866740662)"
Batten Kill,Brook Trout - Brown Trout*,None,http://www.dec.ny.gov/outdoor/31502.html,Washington,Shore Fishing - Public Fishing Rights,Public Easement,http://www.dec.ny.gov/docs/fish_marine_pdf/pfrbattenkil.pdf,-73.311378628,43.083037323,"(43.083037323, -73.311378628)"
Batten Kill,Brook Trout - Brown Trout*,None,http://www.dec.ny.gov/outdoor/31502.html,Washington,Shore Fishing - Public Fishing Rights,Public Easement,http://www.dec.ny.gov/docs/fish_marine_pdf/pfrbattenkil.pdf,-73.354954639,43.13587957,"(43.13587957, -73.354954639)"
Black River,Brook Trout* - Brown Trout* - Rainbow Trout*,None,http://www.dec.ny.gov/outdoor/31470.html,Oneida,Shore Fishing - Public Fishing Rights,Public Easement,,-75.211095217,43.443823877,"(43.443823877, -75.211095217)"
Black River,Brook Trout* - Brown Trout* - Rainbow Trout*,None,http://www.dec.ny.gov/outdoor/31470.html,Oneida,Shore Fishing - Public Fishing Rights,Public Easement,,-75.274035848,43.493377775,"(43.493377775, -75.274035848)"
Black River,Brook Trout* - Brown Trout* - Rainbow Trout*,None,http://www.dec.ny.gov/outdoor/31456.html,Lewis,Shore Fishing - Public Fishing Rights,Public Easement,,-75.3076741,43.53254981,"(43.53254981, -75.3076741)"
Black River,Brook Trout* - Brown Trout* - Rainbow Trout*,None,http://www.dec.ny.gov/outdoor/31456.html,Lewis,Shore Fishing - Public Fishing Rights,Public Easement,,-75.330775915,43.570249921,"(43.570249921, -75.330775915)"
Black River,Brown Trout* - Rainbow Trout* - Walleye,None,http://www.dec.ny.gov/outdoor/31456.html,Lewis,Shore Fishing - Public Fishing Rights - Boat Launch (Trailer Improved),Public Easement - DEC Boat Launch,http://www.dec.ny.gov/outdoor/23889.html,-75.365357639,43.678649799,"(43.678649799, -75.365357639)"
Black River,Brown Trout* - Rainbow Trout* - Walleye,None,http://www.dec.ny.gov/outdoor/31456.html,Lewis,Shore Fishing - Public Fishing Rights - Boat Launch (Trailer Improved),Public Easement - DEC Boat Launch,http://www.dec.ny.gov/outdoor/23889.html,-75.398932569,43.711130585,"(43.711130585, -75.398932569)"
Black River,Brown Trout* - Rainbow Trout* - Walleye,None,http://www.dec.ny.gov/outdoor/31456.html,Lewis,Shore Fishing - Public Fishing Rights - Boat Launch (Trailer Improved),Public Easement - DEC Boat Launch,http://www.dec.ny.gov/outdoor/23889.html,-75.446703206,43.774773516,"(43.774773516, -75.446703206)"
Black River,Brown Trout* - Rainbow Trout* - Walleye,None,http://www.dec.ny.gov/outdoor/31456.html,Lewis,Shore Fishing - Public Fishing Rights - Boat Launch (Trailer Improved),Public Easement - DEC Boat Launch,http://www.dec.ny.gov/outdoor/23889.html,-75.50521032,43.895235137,"(43.895235137, -75.50521032)"
Black River,Brown Trout* - Steelhead* - Coho Salmon - Chinook Salmon* - Smallmouth Bass - Sunfish - Yellow Perch - Northern Pike - Chain Pickerel - Walleye - Carp - Channel Catfish,None,http://www.dec.ny.gov/outdoor/31420.html,Jefferson,Shore Fishing - Public Fishing Rights - Boat Launch (Trailer Improved),Public Easement - DEC Boat Launch,http://www.dec.ny.gov/outdoor/23890.html,-76.046180361,44.005357127,"(44.005357127, -76.046180361)"
Black River,Brown Trout* - Steelhead* - Coho Salmon - Chinook Salmon* - Smallmouth Bass - Sunfish - Yellow Perch - Northern Pike - Chain Pickerel - Walleye - Carp - Channel Catfish,None,http://www.dec.ny.gov/outdoor/31420.html,Jefferson,Shore Fishing - Public Fishing Rights - Boat Launch (Trailer Improved),Public Easement - DEC Boat Launch,http://www.dec.ny.gov/outdoor/23890.html,-76.040388249,44.005820035,"(44.005820035, -76.040388249)"
Stoney Creek,Brown Trout* - Steelhead* - Coho Salmon - Chinook Salmon - Smallmouth Bass - Northern Pike,None,http://www.dec.ny.gov/outdoor/31420.html,Jefferson,Shore Fishing - Public Fishing Rights - Boat Launch (Trailer Improved),Public Easement - New York State Park Boat Launch,http://www.dec.ny.gov/docs/fish_marine_pdf/pfrstonyck.pdf,-76.229135907,43.824899867,"(43.824899867, -76.229135907)"
South Sandy Creek,Brown Trout - Steelhead* - Coho Salmon - Chinook Salmon* - Smallmouth Bass,None,http://www.dec.ny.gov/outdoor/31420.html,Jefferson,Shore Fishing - Public Fishing Rights - Boat Launch (Hand Launch),Public Easement - Lakeview Wildlife Management Area (DEC) - DEC Boat Launch,http://www.dec.ny.gov/docs/fish_marine_pdf/pfrssandyck.pdf,-76.182500037,43.709909916,"(43.709909916, -76.182500037)"
South Sandy Creek,Brook Trout*,None,http://www.dec.ny.gov/outdoor/31420.html,Jefferson,Shore Fishing - Public Fishing Rights,Public Easement,http://www.dec.ny.gov/docs/fish_marine_pdf/pfrssandyck.pdf,-75.925293291,43.777696352,"(43.777696352, -75.925293291)"
West Branch Fish Creek,Brook Trout - Brown Trout* - Atlantic Salmon*,None,http://www.dec.ny.gov/outdoor/31470.html,Oneida,Shore Fishing - Public Fishing Rights,Public Easement - Fish Creek State Forest (DEC),http://www.dec.ny.gov/lands/8072.html,-75.714477768,43.293665209,"(43.293665209, -75.714477768)"
East Branch Fish Creek,Brook Trout - Brown Trout* - Atlantic Salmon*,None,http://www.dec.ny.gov/outdoor/31456.html,Lewis,Shore Fishing - Public Fishing Rights,Public Easement - East Branch Fish Creek State Forest (DEC),http://www.dec.ny.gov/docs/fish_marine_pdf/pfrebfishcreek.pdf,-75.594240745,43.463828007,"(43.463828007, -75.594240745)"
St Lawrence River,Smallmouth Bass - Largemouth Bass - Sunfish - Yellow Perch - Crappie - Muskellunge - Northern Pike - Walleye - Carp - Channel Catfish,Camping available at state park.,http://www.dec.ny.gov/outdoor/31423.html,Jefferson,Shore Fishing - Boat Launch (Trailer Improved),Burnham Point State Park,http://www.dec.ny.gov/outdoor/29956.html,-76.264892023,44.163008752,"(44.163008752, -76.264892023)"
St Lawrence River,Smallmouth Bass - Largemouth Bass - Sunfish - Yellow Perch - Crappie - Muskellunge - Northern Pike - Walleye - Carp - Channel Catfish,Campground - marina and boat rental available at state park.,http://www.dec.ny.gov/outdoor/31423.html,Jefferson,Shore Fishing - Boat Launch (Trailer Improved),Cedar Point State Park,http://www.dec.ny.gov/outdoor/29956.html,-76.199029291,44.204296007,"(44.204296007, -76.199029291)"
St Lawrence River,Smallmouth Bass - Largemouth Bass - Sunfish - Yellow Perch - Crappie - Muskellunge - Northern Pike - Walleye - Carp - Channel Catfish,Campground and boat rental available at state park.,http://www.dec.ny.gov/outdoor/31423.html,Jefferson,Shore Fishing - Boat Launch (Trailer Improved),Grass Point State Park,http://www.dec.ny.gov/outdoor/29956.html,-75.999920539,44.282217817,"(44.282217817, -75.999920539)"
St Lawrence River,Smallmouth Bass - Largemouth Bass - Sunfish - Yellow Perch - Crappie - Muskellunge - Northern Pike - Walleye - Carp - Channel Catfish,Campground - marina and boat rental available at state park.,http://www.dec.ny.gov/outdoor/31423.html,Jefferson,Shore Fishing - Boat Launch (Trailer Improved),Wellesely Island State Park,http://www.dec.ny.gov/outdoor/29956.html,-76.032894584,44.332175362,"(44.332175362, -76.032894584)"
St Lawrence River,Smallmouth Bass - Largemouth Bass - Sunfish - Yellow Perch - Crappie - Muskellunge - Northern Pike - Walleye - Carp - Channel Catfish,Campground - marina and boat rental available at state park.,http://www.dec.ny.gov/outdoor/31423.html,Jefferson,Shore Fishing - Boat Launch (Trailer Improved),Kring Point State Park,http://www.dec.ny.gov/outdoor/29956.html,-75.859611935,44.374585142,"(44.374585142, -75.859611935)"
St Lawrence River,Smallmouth Bass - Largemouth Bass - Sunfish - Yellow Perch - Crappie - Muskellunge - Northern Pike - Walleye - Carp - Channel Catfish,Campground and boat rental available at state park.,http://www.dec.ny.gov/outdoor/31423.html,St. Lawrence,Shore Fishing - Boat Launch (Trailer Improved),Jacques Cartier State Park,http://www.dec.ny.gov/outdoor/29956.html,-75.686236044,44.562354555,"(44.562354555, -75.686236044)"
St Lawrence River,Smallmouth Bass - Largemouth Bass - Sunfish - Yellow Perch - Crappie - Muskellunge - Northern Pike - Walleye - Carp - Channel Catfish,Campground - marina and boat rental available at state park.,http://www.dec.ny.gov/outdoor/31423.html,St. Lawrence,Shore Fishing - Boat Launch (Trailer Improved),Coles Creek State Park,http://www.dec.ny.gov/outdoor/29956.html,-75.122420412,44.888898873,"(44.888898873, -75.122420412)"
St Lawrence River,Smallmouth Bass - Largemouth Bass - Sunfish - Yellow Perch - Crappie - Muskellunge - Northern Pike - Walleye - Carp - Channel Catfish,None,http://www.dec.ny.gov/outdoor/31423.html,St. Lawrence,Boat Launch (Trailer Improved),Wilson Hill State Boat Launch,http://www.dec.ny.gov/outdoor/29956.html,-75.011077684,44.929052125,"(44.929052125, -75.011077684)"
St Lawrence River,Smallmouth Bass - Largemouth Bass - Sunfish - Yellow Perch - Crappie - Muskellunge - Northern Pike - Walleye - Carp - Channel Catfish,None,http://www.dec.ny.gov/outdoor/31423.html,St. Lawrence,Boat Launch (Trailer Improved),Municipal,http://www.dec.ny.gov/outdoor/29956.html,-74.924899209,44.955925486,"(44.955925486, -74.924899209)"
St Lawrence River,Smallmouth Bass - Largemouth Bass - Sunfish - Yellow Perch - Crappie - Muskellunge - Northern Pike - Walleye - Carp - Channel Catfish,Campground - marina and boat rental available at state park.,http://www.dec.ny.gov/outdoor/31423.html,St. Lawrence,Shore Fishing - Boat Launch (Trailer Improved),Robert Moses State Park,http://www.dec.ny.gov/outdoor/29956.html,-74.858931717,45.000150607,"(45.000150607, -74.858931717)"
Salmon River,Brook Trout - Brown Trout* - Rainbow Trout*,None,http://www.dec.ny.gov/outdoor/31444.html,Franklin,Shore Fishing - Public Fishing Rights,Public Easement,http://www.dec.ny.gov/docs/fish_marine_pdf/pfrsalmonrf.pdf,-74.320236144,44.898240638,"(44.898240638, -74.320236144)"
St. Regis River,Brook Trout - Brown Trout* - Rainbow Trout*,None,http://www.dec.ny.gov/outdoor/31444.html,Franklin,Shore Fishing - Boat Launch (Hand Launch),Debar Mountain Wild Forest (DEC),http://www.dec.ny.gov/docs/fish_marine_pdf/pfrstregis.pdf,-74.426088831,44.671708659,"(44.671708659, -74.426088831)"
St. Regis River,Smallmouth Bass - Largemouth Bass - Sunfish - Yellow Perch - Crappie - Muskellunge - Northern Pike - Walleye - Carp - Channel Catfish,Contact St. Regis Nation (518-358-5937) for access to waters within their lands.,http://www.dec.ny.gov/outdoor/31444.html,St. Lawrence,Boat Launch (Trailer Improved),DEC,,-74.786280341,44.822716152,"(44.822716152, -74.786280341)"
Delaware River (Upper),Brown Trout - Rainbow Trout - Smallmouth Bass - Walleye - Carp,None,,Delaware,Boat Launch (Hand Launch),DEC,http://www.dec.ny.gov/outdoor/23900.html,-75.214372297,41.868076776,"(41.868076776, -75.214372297)"
Delaware River (Lower),Smallmouth Bass - Muskellunge - Walleye - Striped Bass,None,http://www.dec.ny.gov/outdoor/31496.html,Sullivan,Boat Launch (Hand Launch),DEC,http://www.dec.ny.gov/outdoor/23864.html,-75.057449516,41.669791341,"(41.669791341, -75.057449516)"
Delaware River (Lower),Smallmouth Bass - Muskellunge - Walleye - Striped Bass,None,http://www.dec.ny.gov/outdoor/31496.html,Sullivan,Boat Launch (Trailer Improved),DEC,http://www.dec.ny.gov/outdoor/23864.html,-75.058613465,41.611681701,"(41.611681701, -75.058613465)"
Delaware River (Lower),Smallmouth Bass - Muskellunge - Walleye - Striped Bass,None,http://www.dec.ny.gov/outdoor/31474.html,Orange,Boat Launch (Hand Launch),DEC,http://www.dec.ny.gov/outdoor/23864.html,-74.740254614,41.405092306,"(41.405092306, -74.740254614)"
Neversink River,Brook Trout - Brown Trout*,None,http://www.dec.ny.gov/outdoor/31496.html,Sullivan,Shore Fishing - Public Fishing Rights,Public Easement,http://www.dec.ny.gov/docs/fish_marine_pdf/pfrneversink.pdf,-74.59996264,41.740825511,"(41.740825511, -74.59996264)"
Neversink River,Brook Trout - Brown Trout*,None,http://www.dec.ny.gov/outdoor/31496.html,Sullivan,Shore Fishing - Public Fishing Rights,Public Easement,http://www.dec.ny.gov/docs/fish_marine_pdf/pfrneversink.pdf,-74.613046049,41.716763116,"(41.716763116, -74.613046049)"
Neversink River,Brook Trout - Brown Trout*,None,http://www.dec.ny.gov/outdoor/31496.html,Sullivan,Shore Fishing - Public Fishing Rights,Public Easement,http://www.dec.ny.gov/docs/fish_marine_pdf/pfrneversink.pdf,-74.599591451,41.692447795,"(41.692447795, -74.599591451)"
Neversink River,Brook Trout - Brown Trout*,None,http://www.dec.ny.gov/outdoor/31496.html,Sullivan,Shore Fishing - Public Fishing Rights,Public Easement,http://www.dec.ny.gov/docs/fish_marine_pdf/pfrneversink.pdf,-74.617556523,41.636854494,"(41.636854494, -74.617556523)"
Neversink River,Brook Trout - Brown Trout*,None,http://www.dec.ny.gov/outdoor/31496.html,Sullivan,Shore Fishing,Neversink River Unique Area (DEC),http://www.dec.ny.gov/docs/fish_marine_pdf/pfrneversink.pdf,-74.633052866,41.593396532,"(41.593396532, -74.633052866)"
Hudson River (Upper Hudson),Smallmouth Bass - Largemouth Bass - Sunfish - Yellow Perch - Crappie - Northern Pike - Chain Pickerel - Walleye - Carp - Channel Catfish,None,,Warren,Shore Fishing - Boat Launch (Hand Launch),Lake George Wild Forest (DEC),http://www.dec.ny.gov/lands/28291.html,-73.814143727,43.513715376,"(43.513715376, -73.814143727)"
Hudson River (Upper Hudson),Smallmouth Bass - Largemouth Bass - Sunfish - Yellow Perch - Crappie - Northern Pike - Chain Pickerel - Walleye - Carp - Channel Catfish,None,,Warren,Shore Fishing - Boat Launch (Hand Launch),Lake George Wild Forest (DEC),http://www.dec.ny.gov/lands/28291.html,-73.852988038,43.325418379,"(43.325418379, -73.852988038)"
Hudson River (Upper Hudson),Smallmouth Bass - Largemouth Bass - Sunfish - Yellow Perch - Crappie - Northern Pike - Chain Pickerel - Walleye - Carp - Channel Catfish,None,,Warren,Shore Fishing - Boat Launch (Trailer Improved),DEC,http://www.dec.ny.gov/outdoor/23860.html,-73.825999418,43.287323582,"(43.287323582, -73.825999418)"
Hudson River (Upper Hudson),Smallmouth Bass - Largemouth Bass - Sunfish - Yellow Perch - Crappie - Northern Pike - Chain Pickerel - Walleye - Carp - Channel Catfish,None,http://www.dec.ny.gov/outdoor/31502.html,Saratoga,Boat Launch (Trailer Improved),DEC,http://www.dec.ny.gov/outdoor/23860.html,-73.587993226,43.254232031,"(43.254232031, -73.587993226)"
East Branch Delaware River (Lower),Brook Trout - Brown Trout* - Rainbow Trout,None,http://www.dec.ny.gov/outdoor/31440.html,Delaware,Shore Fishing - Public Fishing Rights,Public Easement,http://www.dec.ny.gov/docs/fish_marine_pdf/pfreastbranch.pdf,-74.991358898,42.076582022,"(42.076582022, -74.991358898)"
East Branch Delaware River (Lower),Brook Trout - Brown Trout* - Rainbow Trout - Smallmouth Bass - Walleye,None,http://www.dec.ny.gov/outdoor/31440.html,Delaware,Shore Fishing - Public Fishing Rights - Boat Launch (Hand Launch),Public Easement - DEC Boat Launch,http://www.dec.ny.gov/docs/fish_marine_pdf/pfreastbranch.pdf,-75.184252676,41.964690101,"(41.964690101, -75.184252676)"
East Branch Delaware River (Lower),Brook Trout - Brown Trout* - Rainbow Trout - Smallmouth Bass - Walleye,None,http://www.dec.ny.gov/outdoor/31440.html,Delaware,Shore Fishing - Public Fishing Rights,Public Easement,http://www.dec.ny.gov/docs/fish_marine_pdf/pfreastbranch.pdf,-75.262237976,41.96372689,"(41.96372689, -75.262237976)"
Beaver Kill,Brown Trout* - Rainbow Trout,None,http://www.dec.ny.gov/outdoor/31496.html,Sullivan,Shore Fishing - Public Fishing Rights,Public Easement,http://www.dec.ny.gov/docs/fish_marine_pdf/pfrbeaverkill.pdf,-74.928044613,41.949559169,"(41.949559169, -74.928044613)"
Beaver Kill,Brown Trout* - Rainbow Trout,None,,Delaware,Shore Fishing - Public Fishing Rights,Public Easement,http://www.dec.ny.gov/docs/fish_marine_pdf/pfrbeaverkill.pdf,-74.907536082,41.964650883,"(41.964650883, -74.907536082)"
Beaver Kill,Brown Trout* - Rainbow Trout,Camping available onsite.,,Sullivan,Shore Fishing - Public Fishing Rights,Public Easement - Beaverkill Campground (DEC),http://www.dec.ny.gov/docs/fish_marine_pdf/pfrbeaverkill.pdf,-74.83559897,41.981314631,"(41.981314631, -74.83559897)"
West Branch Delaware River (Upper),Brook Trout - Brown Trout*,NYCDEP permit required (1-800-574-LAND).,http://www.dec.ny.gov/outdoor/31440.html,Delaware,Shore Fishing - Public Fishing Rights,Public Easement,http://www.dec.ny.gov/docs/fish_marine_pdf/pfrwestbranch.pdf,-74.803711617,42.328483023,"(42.328483023, -74.803711617)"
West Branch Delaware River (Upper),Brook Trout - Brown Trout*,NYCDEP permit required (1-800-574-LAND).,http://www.dec.ny.gov/outdoor/31440.html,Delaware,Shore Fishing - Public Fishing Rights,Public Easement,http://www.dec.ny.gov/docs/fish_marine_pdf/pfrwestbranch.pdf,-74.898604961,42.301172072,"(42.301172072, -74.898604961)"
West Branch Delaware River (Upper),Brook Trout - Brown Trout*,NYCDEP permit required (1-800-574-LAND).,http://www.dec.ny.gov/outdoor/31440.html,Delaware,Shore Fishing - Public Fishing Rights,Public Easement,http://www.dec.ny.gov/docs/fish_marine_pdf/pfrwestbranch.pdf,-74.929331058,42.260441526,"(42.260441526, -74.929331058)"
West Branch Delaware River (Lower),Brown Trout* - Rainbow Trout - Smallmouth Bass - Walleye,Anglers fishing for migratory marine species must enroll in the recreational marine fishing registry (518-402-8843).,http://www.dec.ny.gov/outdoor/31440.html,Delaware,Shore Fishing - Public Fishing Rights,Public Easement - DEC Boat Launch,http://www.dec.ny.gov/docs/fish_marine_pdf/pfrwestbranch.pdf,-75.383871024,42.003173315,"(42.003173315, -75.383871024)"
Hudson River (Lower),Smallmouth Bass - Largemouth Bass - Sunfish - Yellow Perch - Crappie - Tiger Musky - Northern Pike - Walleye - Carp - Channel Catfish - Striped bass,Anglers fishing for migratory marine species must enroll in the recreational marine fishing registry (518-402-8843).,http://www.dec.ny.gov/outdoor/31479.html,Albany,Boat Launch (Trailer Improved),DEC,http://www.dec.ny.gov/outdoor/23912.html,-73.789569928,42.47318154,"(42.47318154, -73.789569928)"
Hudson River (Upper Hudson),Smallmouth Bass - Largemouth Bass - Sunfish - Yellow Perch - Crappie - Northern Pike - Chain Pickerel - Walleye - Carp - Channel Catfish,None,http://www.dec.ny.gov/outdoor/31479.html,Rensselear,Shore Fishing - Boat Launch (Trailer Improved),Municipal,http://www.dec.ny.gov/outdoor/23874.html,-73.674228129,42.784585314,"(42.784585314, -73.674228129)"
Hudson River (Lower),Smallmouth Bass - Largemouth Bass - Sunfish - Yellow Perch - Crappie - Tiger Musky - Northern Pike - Walleye - Carp - Channel Catfish - Striped bass,Anglers fishing for migratory marine species must enroll in the recreational marine fishing registry (518-402-8843).,http://www.dec.ny.gov/outdoor/31479.html,Rensselear,Shore Fishing - Boat Launch (Trailer Improved),Municipal,http://www.dec.ny.gov/outdoor/23874.html,-73.734703578,42.65869099,"(42.65869099, -73.734703578)"
Hudson River (Lower),Smallmouth Bass - Largemouth Bass - Sunfish - Yellow Perch - Crappie - Tiger Musky - Northern Pike - Walleye - Carp - Channel Catfish - Striped bass,Anglers fishing for migratory marine species must enroll in the recreational marine fishing registry (518-402-8843).,http://www.dec.ny.gov/outdoor/31479.html,Rensselear,Shore Fishing - Boat Launch (Trailer Improved),Schodack Island State Park,http://www.dec.ny.gov/outdoor/23874.html,-73.776426071,42.499956752,"(42.499956752, -73.776426071)"
Hudson River (Lower),Smallmouth Bass - Largemouth Bass - Sunfish - Yellow Perch - Crappie - Tiger Musky - Northern Pike - Walleye - Carp - Channel Catfish - Striped bass,Anglers fishing for migratory marine species must enroll in the recreational marine fishing registry (518-402-8843).,http://www.dec.ny.gov/outdoor/31479.html,Albany,Shore Fishing - Boat Launch (Trailer Improved),Henry Hudson Town Park (Municipal),http://www.dec.ny.gov/outdoor/23912.html,-73.758999748,42.547759562,"(42.547759562, -73.758999748)"
Hudson River (Lower),Smallmouth Bass - Largemouth Bass - Sunfish - Yellow Perch - Crappie - Tiger Musky - Northern Pike - Walleye - Carp - Channel Catfish - Striped bass,Anglers fishing for migratory marine species must enroll in the recreational marine fishing registry (518-402-8843).,http://www.dec.ny.gov/outdoor/31438.html,Columbia,Boat Launch (Trailer Improved),Hudson State Boat Launch (New York State Parks),http://www.dec.ny.gov/outdoor/23902.html,-73.797604436,42.25639975,"(42.25639975, -73.797604436)"
Hudson River (Lower),Smallmouth Bass - Largemouth Bass - Sunfish - Yellow Perch - Crappie - Tiger Musky - Northern Pike - Walleye - Carp - Channel Catfish - Striped bass,Anglers fishing for migratory marine species must enroll in the recreational marine fishing registry (518-402-8843).,http://www.dec.ny.gov/outdoor/31438.html,Columbia,Shore Fishing - Boat Launch (Trailer Improved),Ernest R. Lasher Memorial Park (Municipal),http://www.dec.ny.gov/outdoor/23902.html,-73.886420105,42.158650282,"(42.158650282, -73.886420105)"
Hudson River (Lower),Smallmouth Bass - Largemouth Bass - Sunfish - Yellow Perch - Crappie - Tiger Musky - Northern Pike - Walleye - Carp - Channel Catfish - Striped bass,Anglers fishing for migratory marine species must enroll in the recreational marine fishing registry (518-402-8843).,http://www.dec.ny.gov/outdoor/31450.html,Greene,Boat Launch (Trailer Improved),Coxsackie Boat Launch (New York State Park),http://www.dec.ny.gov/outdoor/23902.html,-73.795665163,42.353152633,"(42.353152633, -73.795665163)"
Schenevus Creek,Brook Trout - Brown Trout*,None,,Otsego,Shore Fishing - Public Fishing Rights,Public Easement,http://www.dec.ny.gov/docs/fish_marine_pdf/pfrschenevus.pdf,-74.683817233,42.609895131,"(42.609895131, -74.683817233)"
Hudson River (Lower),Smallmouth Bass - Largemouth Bass - Sunfish - Yellow Perch - Crappie - Tiger Musky - Northern Pike - Walleye - Carp - Channel Catfish - Striped bass,Anglers fishing for migratory marine species must enroll in the recreational marine fishing registry (518-402-8843).,http://www.dec.ny.gov/outdoor/31450.html,Greene,Boat Launch (Trailer Improved),Athens State Boat launch,http://www.dec.ny.gov/outdoor/23902.html,-73.801813315,42.272658397,"(42.272658397, -73.801813315)"
Hudson River (Lower),Smallmouth Bass - Largemouth Bass - Sunfish - Yellow Perch - Crappie - Tiger Musky - Northern Pike - Walleye - Carp - Channel Catfish - Striped bass,Anglers fishing for migratory marine species must enroll in the recreational marine fishing registry (518-402-8843).,http://www.dec.ny.gov/outdoor/31450.html,Greene,Shore Fishing - Boat Launch (Trailer Improved),Dutchman's Landing Park (Municipal),http://www.dec.ny.gov/outdoor/23902.html,-73.856359119,42.213240158,"(42.213240158, -73.856359119)"
Hudson River (Lower),Smallmouth Bass - Largemouth Bass - Sunfish - Yellow Perch - Crappie - Tiger Musky - Northern Pike - Walleye - Carp - Channel Catfish - Striped bass,Anglers fishing for migratory marine species must enroll in the recreational marine fishing registry (518-402-8843).,http://www.dec.ny.gov/outdoor/31500.html,Ulster,Boat Launch (Trailer Improved),DEC,http://www.dec.ny.gov/outdoor/23861.html,-73.95493106,41.972865815,"(41.972865815, -73.95493106)"
Hudson River (Lower),Smallmouth Bass - Largemouth Bass - Sunfish - Yellow Perch - Crappie - Tiger Musky - Northern Pike - Walleye - Carp - Channel Catfish - Striped bass,Anglers fishing for migratory marine species must enroll in the recreational marine fishing registry (518-402-8843).,http://www.dec.ny.gov/outdoor/31500.html,Ulster,Boat Launch (Trailer Improved),Municipal,http://www.dec.ny.gov/outdoor/23861.html,-73.930934355,42.098604297,"(42.098604297, -73.930934355)"
Hudson River (Lower),Smallmouth Bass - Largemouth Bass - Sunfish - Yellow Perch - Crappie - Tiger Musky - Northern Pike - Walleye - Carp - Channel Catfish - Striped bass,Anglers fishing for migratory marine species must enroll in the recreational marine fishing registry (518-402-8843).,http://www.dec.ny.gov/outdoor/31500.html,Ulster,Boat Launch (Trailer Improved),Municipal,http://www.dec.ny.gov/outdoor/23861.html,-73.94011231,42.044900483,"(42.044900483, -73.94011231)"
Hudson River (Lower),Smallmouth Bass - Largemouth Bass - Sunfish - Yellow Perch - Crappie - Tiger Musky - Northern Pike - Walleye - Carp - Channel Catfish - Striped bass,Anglers fishing for migratory marine species must enroll in the recreational marine fishing registry (518-402-8843).,http://www.dec.ny.gov/outdoor/31500.html,Ulster,Boat Launch (Trailer Improved),Municipal,http://www.dec.ny.gov/outdoor/23861.html,-73.974711081,41.920106306,"(41.920106306, -73.974711081)"
Hudson River (Lower),Smallmouth Bass - Largemouth Bass - Sunfish - Yellow Perch - Crappie - Tiger Musky - Northern Pike - Walleye - Carp - Channel Catfish - Striped bass,Campground and marina available. Anglers fishing for migratory marine species must enroll in the recreational marine fishing registry (518-402-8843).,http://www.dec.ny.gov/outdoor/31500.html,Dutchess,Shore Fishing - Boat Launch (Trailer Improved),Margaret Lewis Norrie State Park,http://www.dec.ny.gov/outdoor/23899.html,-73.941810327,41.834009683,"(41.834009683, -73.941810327)"
Hudson River (Lower),Smallmouth Bass - Largemouth Bass - Sunfish - Yellow Perch - Crappie - Tiger Musky - Northern Pike - Walleye - Carp - Channel Catfish - Striped bass,Anglers fishing for migratory marine species must enroll in the recreational marine fishing registry (518-402-8843).,http://www.dec.ny.gov/outdoor/31474.html,Orange,Boat Launch (Trailer Improved),Municipal,http://www.dec.ny.gov/outdoor/23879.html,-74.005368463,41.498270942,"(41.498270942, -74.005368463)"
Hudson River (Lower),Smallmouth Bass - Largemouth Bass - Sunfish - Yellow Perch - Crappie - Tiger Musky - Northern Pike - Walleye - Carp - Channel Catfish - Striped bass,Anglers fishing for migratory marine species must enroll in the recreational marine fishing registry (518-402-8843).,http://www.dec.ny.gov/outdoor/31474.html,Orange,Shore Fishing - Boat Launch (Hand Launch),Sloop Hill State Unique Area (DEC),http://www.dec.ny.gov/outdoor/23879.html,-74.012370281,41.46220104,"(41.46220104, -74.012370281)"
Hudson River (Lower),Smallmouth Bass - Largemouth Bass - Sunfish - Yellow Perch - Crappie - Tiger Musky - Northern Pike - Walleye - Carp - Channel Catfish - Striped bass,Fishing pier available. Anglers fishing for migratory marine species must enroll in the recreational marine fishing registry (518-402-8843).,http://www.dec.ny.gov/outdoor/31480.html,Rockland,Boat Launch (Trailer Improved),Municipal,http://www.dec.ny.gov/outdoor/23873.html,-73.964747741,41.212319102,"(41.212319102, -73.964747741)"
Hudson River (Lower),Smallmouth Bass - Largemouth Bass - Sunfish - Yellow Perch - Crappie - Tiger Musky - Northern Pike - Walleye - Carp - Channel Catfish - Striped bass,OPRHP permit required (845-358-1316) Anglers fishing for migratory marine species must enroll in the recreational marine fishing registry.,http://www.dec.ny.gov/outdoor/31480.html,Rockland,Shore Fishing - Boat Launch (Trailer Improved),Nyack Beach State Park,http://www.dec.ny.gov/outdoor/23873.html,-73.911660123,41.120463353,"(41.120463353, -73.911660123)"
Hudson River (Lower),Smallmouth Bass - Largemouth Bass - Sunfish - Yellow Perch - Crappie - Tiger Musky - Northern Pike - Walleye - Carp - Channel Catfish - Striped bass,Anglers fishing for migratory marine species must enroll in the recreational marine fishing registry (518-402-8843).,http://www.dec.ny.gov/outdoor/31504.html,Westchester,Shore Fishing - Boat Launch (Hand Launch),JFK Marina and Park (Municipal),http://www.dec.ny.gov/outdoor/23856.html,-73.897442938,40.956403965,"(40.956403965, -73.897442938)"
Hudson River (Lower),Smallmouth Bass - Largemouth Bass - Sunfish - Yellow Perch - Crappie - Tiger Musky - Northern Pike - Walleye - Carp - Channel Catfish - Striped bass,Anglers fishing for migratory marine species must enroll in the recreational marine fishing registry (518-402-8843).,http://www.dec.ny.gov/outdoor/31504.html,Westchester,Shore Fishing - Boat Launch (Hand Launch),Municipal,http://www.dec.ny.gov/outdoor/23856.html,-73.873229297,41.042570436,"(41.042570436, -73.873229297)"
Hudson River (Lower),Smallmouth Bass - Largemouth Bass - Sunfish - Yellow Perch - Crappie - Tiger Musky - Northern Pike - Walleye - Carp - Channel Catfish - Striped bass,Anglers fishing for migratory marine species must enroll in the recreational marine fishing registry (518-402-8843).,http://www.dec.ny.gov/outdoor/31504.html,Westchester,Boat Launch (Trailer Improved),Municipal,http://www.dec.ny.gov/outdoor/23856.html,-73.932452499,41.285341851,"(41.285341851, -73.932452499)"
Rondout Creek,Brook Trout - Brown Trout*,None,http://www.dec.ny.gov/outdoor/31500.html,Ulster,Shore Fishing - Public Fishing Rights,Public Easement,http://www.dec.ny.gov/docs/fish_marine_pdf/pfrrondoutck.pdf,-74.296237949,41.77437696,"(41.77437696, -74.296237949)"
Wallkill River,Smallmouth Bass - Walleye - Carp,Electric Motors Only.,http://www.dec.ny.gov/outdoor/31500.html,Ulster,Boat Launch (Hand Launch),Municipal,http://www.dec.ny.gov/outdoor/58866.html,-74.093382138,41.743720878,"(41.743720878, -74.093382138)"
Esopus Creek,Brook Trout - Brown Trout* - Rainbow Trout,None,http://www.dec.ny.gov/outdoor/31500.html,Ulster,Shore Fishing - Public Fishing Rights,Public Easement,http://www.dec.ny.gov/docs/fish_marine_pdf/pfresopusck.pdf,-74.303461251,42.067369131,"(42.067369131, -74.303461251)"
Esopus Creek,Brook Trout - Brown Trout* - Rainbow Trout,None,http://www.dec.ny.gov/outdoor/31500.html,Ulster,Shore Fishing - Public Fishing Rights,Public Easement,http://www.dec.ny.gov/docs/fish_marine_pdf/pfresopusck.pdf,-74.351990724,42.106529941,"(42.106529941, -74.351990724)"
Esopus Creek,Brook Trout - Brown Trout* - Rainbow Trout,None,http://www.dec.ny.gov/outdoor/31500.html,Ulster,Shore Fishing - Public Fishing Rights,Public Easement,http://www.dec.ny.gov/docs/fish_marine_pdf/pfresopusck.pdf,-74.424036324,42.117566126,"(42.117566126, -74.424036324)"
Schoharie Creek (Lower),Smallmouth Bass - Walleye - Carp,None,http://www.dec.ny.gov/outdoor/31490.html,Schoharie,Boat Launch (Hand Launch),DEC,http://www.dec.ny.gov/outdoor/23870.html,-74.333227674,42.73979526,"(42.73979526, -74.333227674)"
Schoharie Creek (Lower),Smallmouth Bass - Walleye - Carp,None,http://www.dec.ny.gov/outdoor/31490.html,Schoharie,Boat Launch (Hand Launch),DEC,http://www.dec.ny.gov/outdoor/23870.html,-74.324516379,42.708143031,"(42.708143031, -74.324516379)"
Hoosic River,Brown Trout - Rainbow Trout - Smallmouth Bass - Carp,None,http://www.dec.ny.gov/outdoor/31502.html,Rensselear,Boat Launch (Hand Launch),DEC,http://www.dec.ny.gov/outdoor/23874.html,-73.433395106,42.957765917,"(42.957765917, -73.433395106)"
Catskill Creek,Brown Trout*,None,,Albany,Shore Fishing - Public Fishing Rights,Public Easement,http://www.dec.ny.gov/docs/fish_marine_pdf/pfrcatskillc.pdf,-74.201479004,42.414447458,"(42.414447458, -74.201479004)"
Catskill Creek,Brown Trout*,None,,Albany,Shore Fishing - Public Fishing Rights,Public Easement,http://www.dec.ny.gov/docs/fish_marine_pdf/pfrcatskillc.pdf,-74.212227354,42.447683387,"(42.447683387, -74.212227354)"
Catskill Creek,Brown Trout*,None,,Schoharie,Shore Fishing - Public Fishing Rights,Public Easement,http://www.dec.ny.gov/docs/fish_marine_pdf/pfrcatskillc.pdf,-74.247409065,42.472374393,"(42.472374393, -74.247409065)"
Kinderhook Creek,Brook Trout - Brown Trout*,None,http://www.dec.ny.gov/outdoor/31479.html,Rensselear,Shore Fishing - Public Fishing Rights,Public Easement,http://www.dec.ny.gov/docs/fish_marine_pdf/pfrkinderhook.pdf,-73.505900174,42.505718611,"(42.505718611, -73.505900174)"
Kinderhook Creek,Brook Trout - Brown Trout*,None,http://www.dec.ny.gov/outdoor/31479.html,Rensselear,Shore Fishing - Public Fishing Rights,Public Easement,http://www.dec.ny.gov/docs/fish_marine_pdf/pfrkinderhook.pdf,-73.407313844,42.535987538,"(42.535987538, -73.407313844)"
Schoharie Creek (Upper),Brook Trout - Brown Trout*,None,,Greene,Shore Fishing - Public Fishing Rights,Public Easement,http://www.dec.ny.gov/docs/fish_marine_pdf/pfrschoharie.pdf,-74.371131466,42.243625144,"(42.243625144, -74.371131466)"
Schoharie Creek (Upper),Brook Trout - Brown Trout*,None,,Greene,Shore Fishing - Public Fishing Rights,Public Easement,http://www.dec.ny.gov/docs/fish_marine_pdf/pfrschoharie.pdf,-74.284455128,42.227957137,"(42.227957137, -74.284455128)"
Schoharie Creek (Upper),Brook Trout - Brown Trout*,None,,Greene,Shore Fishing - Public Fishing Rights,Public Easement,http://www.dec.ny.gov/docs/fish_marine_pdf/pfrschoharie.pdf,-74.207702481,42.20707037,"(42.20707037, -74.207702481)"
Unadilla River,Smallmouth Bass - Largemouth Bass - Sunfish - Yellow Perch - Chain Pickerel - Walleye - Carp,None,,Chenango,Boat Launch (Hand Launch),DEC,http://www.dec.ny.gov/outdoor/63437.html,-75.366443143,42.553247105,"(42.553247105, -75.366443143)"
Unadilla River,Smallmouth Bass - Largemouth Bass - Sunfish - Yellow Perch - Chain Pickerel - Walleye - Carp,None,,Chenango,Boat Launch (Hand Launch),DEC,http://www.dec.ny.gov/outdoor/63437.html,-75.382776917,42.528472122,"(42.528472122, -75.382776917)"
Unadilla River,Smallmouth Bass - Largemouth Bass - Sunfish - Yellow Perch - Chain Pickerel - Walleye - Carp,None,,Chenango,Boat Launch (Hand Launch),DEC,http://www.dec.ny.gov/outdoor/63437.html,-75.397944664,42.393711696,"(42.393711696, -75.397944664)"
Schenevus Creek,Brook Trout - Brown Trout*,None,,Otsego,Shore Fishing - Public Fishing Rights,Public Easement,http://www.dec.ny.gov/docs/fish_marine_pdf/pfrschenevus.pdf,-74.852639108,42.540758558,"(42.540758558, -74.852639108)"
Schenevus Creek,Brook Trout - Brown Trout*,None,,Otsego,Shore Fishing - Public Fishing Rights,Public Easement,http://www.dec.ny.gov/docs/fish_marine_pdf/pfrschenevus.pdf,-74.749939073,42.588857057,"(42.588857057, -74.749939073)"
Charlotte Creek,Brook Trout - Brown Trout*,None,,Otsego,Shore Fishing - Public Fishing Rights,Public Easement,http://www.dec.ny.gov/docs/fish_marine_pdf/pfrcharlotte.pdf,-74.997847427,42.443708197,"(42.443708197, -74.997847427)"
Butternut Creek,Brook Trout - Brown Trout*,None,,Otsego,Shore Fishing - Public Fishing Rights,Public Easement,http://www.dec.ny.gov/docs/fish_marine_pdf/pfrbuternut.pdf,-75.144791275,42.670570475,"(42.670570475, -75.144791275)"
Chautauqua Creek,Brown Trout,None,http://www.dec.ny.gov/outdoor/31420.html,Chautauqua,Shore Fishing - Public Fishing Rights,Public Easement,http://www.dec.ny.gov/docs/fish_marine_pdf/chautauquacreek.pdf,-79.589919649,42.203633417,"(42.203633417, -79.589919649)"
Niagara River (Lower),Brown Trout* - Steelhead* - Chinook Salmon* - Coho Salmon* - Lake Trout - Smallmouth Bass - Yellow Perch - Muskellunge - Walleye* - Carp,None,http://www.dec.ny.gov/outdoor/31425.html,Niagara,Shore Fishing - Boat Launch (Trailer Improved),Municipal,http://www.dec.ny.gov/outdoor/67913.html,-79.049662499,43.174029561,"(43.174029561, -79.049662499)"
Niagara River (Lower),Brown Trout* - Steelhead* - Chinook Salmon* - Coho Salmon* - Lake Trout - Smallmouth Bass - Yellow Perch - Muskellunge - Walleye* - Carp,None,http://www.dec.ny.gov/outdoor/31425.html,Niagara,Shore Fishing,Joseph Davis State Park,http://www.dec.ny.gov/outdoor/67913.html,-79.051309539,43.214906243,"(43.214906243, -79.051309539)"
Niagara River (Lower),Brown Trout* - Steelhead* - Chinook Salmon* - Coho Salmon* - Lake Trout - Smallmouth Bass - Yellow Perch - Muskellunge - Walleye* - Carp,None,http://www.dec.ny.gov/outdoor/31425.html,Niagara,Shore Fishing,Artpark State Park,http://www.dec.ny.gov/outdoor/67913.html,-79.046464334,43.166763893,"(43.166763893, -79.046464334)"
Niagara River (Lower),Brown Trout* - Steelhead* - Chinook Salmon* - Coho Salmon* - Lake Trout - Smallmouth Bass - Yellow Perch - Muskellunge - Walleye* - Carp,Steep hike in.,http://www.dec.ny.gov/outdoor/31425.html,Niagara,Shore Fishing,Devils Hole State Park,http://www.dec.ny.gov/outdoor/67913.html,-79.047616105,43.133026069,"(43.133026069, -79.047616105)"
Niagara River (Lower),Brown Trout* - Steelhead* - Chinook Salmon* - Coho Salmon* - Lake Trout - Smallmouth Bass - Yellow Perch - Muskellunge - Walleye* - Carp,Steep hike in.,http://www.dec.ny.gov/outdoor/31425.html,Niagara,Shore Fishing,Whirlpool State Park,http://www.dec.ny.gov/outdoor/67913.html,-79.063987499,43.120371315,"(43.120371315, -79.063987499)"
Eighteen Mile Creek,Brown Trout* - Steelhead* - Smallmouth Bass,None,http://www.dec.ny.gov/outdoor/31420.html,Erie,Shore Fishing - Public Fishing Rights,Public Easement,http://www.dec.ny.gov/docs/fish_marine_pdf/eighteenmilesouth.pdf,-78.966497439,42.711455717,"(42.711455717, -78.966497439)"
Eighteen Mile Creek,Brown Trout* - Steelhead* - Smallmouth Bass,None,http://www.dec.ny.gov/outdoor/31420.html,Erie,Shore Fishing,Eighteenmile Creek County Park (Undeveloped),http://www.dec.ny.gov/docs/fish_marine_pdf/eighteenmilesouth.pdf,-78.892991148,42.706649627,"(42.706649627, -78.892991148)"
Cattaraugus Creek (Upper),Brown Trout* - Rainbow Trout,None,http://www.dec.ny.gov/outdoor/31505.html,Wyoming,Shore Fishing - Public Fishing Rights,Public Easement,http://www.dec.ny.gov/docs/fish_marine_pdf/cattcreekhosmer.pdf,-78.457810136,42.536282407,"(42.536282407, -78.457810136)"
Cattaraugus Creek (Upper),Brown Trout* - Rainbow Trout,None,http://www.dec.ny.gov/outdoor/31505.html,Wyoming,Shore Fishing - Public Fishing Rights,Public Easement,http://www.dec.ny.gov/docs/fish_marine_pdf/cattcreekhosmer.pdf,-78.335135708,42.586092314,"(42.586092314, -78.335135708)"
Cattaraugus Creek (Lower),Brown Trout* - Steelhead* - Smallmouth Bass - Channel Catfish,None,http://www.dec.ny.gov/outdoor/31420.html,Erie,Shore Fishing,County Park,http://www.dec.ny.gov/docs/fish_marine_pdf/cattcreeksteelhead.pdf,-78.700131638,42.483415317,"(42.483415317, -78.700131638)"
Cattaraugus Creek (Lower),Brown Trout* - Steelhead* - Smallmouth Bass - Channel Catfish,None,http://www.dec.ny.gov/outdoor/31420.html,Cattaraugus,Shore Fishing - Public Fishing Rights,Public Easement,http://www.dec.ny.gov/docs/fish_marine_pdf/cattcreeksteelhead.pdf,-78.7447426,42.473846016,"(42.473846016, -78.7447426)"
Cattaraugus Creek (Lower),Brown Trout* - Steelhead* - Smallmouth Bass - Channel Catfish,None,http://www.dec.ny.gov/outdoor/31420.html,Cattaraugus,Shore Fishing,Zoar Valley Multiple Use Area (DEC),http://www.dec.ny.gov/docs/fish_marine_pdf/cattcreeksteelhead.pdf,-78.903904539,42.443691682,"(42.443691682, -78.903904539)"
Lime Lake Outlet,Brown Trout - Rainbow Trout,None,http://www.dec.ny.gov/outdoor/31432.html,Cattaraugus,Shore Fishing - Public Fishing Rights,Public Easement,http://www.dec.ny.gov/docs/fish_marine_pdf/limelakemckin.pdf,-78.486217246,42.488673921,"(42.488673921, -78.486217246)"
Genesee River (Upper),Brown Trout* - Rainbow Trout* - Smallmouth Bass,None,http://www.dec.ny.gov/outdoor/31494.html,Allegany,Shore Fishing - Public Fishing Rights,Public Easement,http://www.dec.ny.gov/docs/fish_marine_pdf/geneseeriver.pdf,-77.946074243,42.116138081,"(42.116138081, -77.946074243)"
Genesee River (Upper),Brown Trout* - Rainbow Trout* - Smallmouth Bass,None,http://www.dec.ny.gov/outdoor/31494.html,Allegany,Shore Fishing - Public Fishing Rights,Public Easement,http://www.dec.ny.gov/docs/fish_marine_pdf/geneseeriver.pdf,-77.924837466,42.075496111,"(42.075496111, -77.924837466)"
Genesee River (Upper),Brown Trout* - Rainbow Trout* - Smallmouth Bass,None,http://www.dec.ny.gov/outdoor/31494.html,Allegany,Shore Fishing - Public Fishing Rights,Public Easement,http://www.dec.ny.gov/docs/fish_marine_pdf/geneseeriver.pdf,-77.895065324,42.015608849,"(42.015608849, -77.895065324)"
Wiscoy Creek,Brook Trout - Brown Trout,None,http://www.dec.ny.gov/outdoor/31505.html,Wyoming,Shore Fishing - Public Fishing Rights,Public Easement,http://www.dec.ny.gov/docs/fish_marine_pdf/wiscoy.pdf,-78.211783219,42.577607411,"(42.577607411, -78.211783219)"
Wiscoy Creek,Brook Trout - Brown Trout,None,http://www.dec.ny.gov/outdoor/31505.html,Wyoming,Shore Fishing - Public Fishing Rights,Public Easement,http://www.dec.ny.gov/docs/fish_marine_pdf/wiscoy.pdf,-78.17286482,42.572203313,"(42.572203313, -78.17286482)"
Wiscoy Creek,Brook Trout - Brown Trout,None,http://www.dec.ny.gov/outdoor/31505.html,Wyoming,Shore Fishing - Public Fishing Rights,Public Easement,http://www.dec.ny.gov/docs/fish_marine_pdf/wiscoy.pdf,-78.117776875,42.538612633,"(42.538612633, -78.117776875)"
Eighteen Mile Creek,Brown Trout - Steelhead* - Atlantic Salmon - Chinook Salmon* - Coho Salmon* - Smallmouth Bass - Largemouth Bass - Sunfish - Yellow Perch - Crappie - Northern Pike - Carp - Channel Catfish,None,http://www.dec.ny.gov/outdoor/31420.html,Niagara,Boat Launch (Trailer Improved),Municipal,http://www.dec.ny.gov/outdoor/23883.html,-78.717151567,43.336162796,"(43.336162796, -78.717151567)"
Tonawanda Creek (Barge Canal),Smallmouth Bass - Largemouth Bass - Sunfish - Northern  Pike - Walleye - Carp,None,,Niagara,Shore Fishing - Boat Launch (Trailer Improved),Municipal,http://www.dec.ny.gov/outdoor/23883.html,-78.854873984,43.021668182,"(43.021668182, -78.854873984)"
Tonawanda Creek (Barge Canal),Smallmouth Bass - Largemouth Bass - Sunfish - Northern  Pike - Walleye - Carp,None,,Niagara,Shore Fishing - Boat Launch (Trailer Improved),North Tanawanda Botanical Gardens,http://www.dec.ny.gov/outdoor/23883.html,-78.827152872,43.038311484,"(43.038311484, -78.827152872)"
Tonawanda Creek (Barge Canal),Smallmouth Bass - Largemouth Bass - Sunfish - Northern  Pike - Walleye - Carp,None,,Erie,Shore Fishing - Boat Launch (Trailer Improved),Amherst Veterans Memorial Park (Municipal),http://www.dec.ny.gov/outdoor/23883.html,-78.802579298,43.065019587,"(43.065019587, -78.802579298)"
Tonawanda Creek (Barge Canal),Smallmouth Bass - Largemouth Bass - Sunfish - Northern  Pike - Walleye - Carp,None,,Niagara,Boat Launch (Hand Launch),DEC,http://www.dec.ny.gov/outdoor/23898.html,-78.591787404,43.074212652,"(43.074212652, -78.591787404)"
Niagara River (Upper),Rainbow Trout - Smallmouth Bass - Largemouth Bass - Sunfish - Yellow Perch - Muskellunge - Northern Pike - Walleye - Carp,None,http://www.dec.ny.gov/outdoor/31428.html,Erie,Shore Fishing - Boat Launch (Trailer Improved),Nia-wanda Municipal Park,http://www.dec.ny.gov/outdoor/23898.html,-78.891867762,43.016338306,"(43.016338306, -78.891867762)"
Niagara River (Upper),Rainbow Trout - Smallmouth Bass - Largemouth Bass - Sunfish - Yellow Perch - Muskellunge - Northern Pike - Walleye - Carp,None,http://www.dec.ny.gov/outdoor/31428.html,Erie,Shore Fishing - Boat Launch (Trailer Improved),Isle View County Park,http://www.dec.ny.gov/outdoor/23898.html,-78.910250799,43.009664906,"(43.009664906, -78.910250799)"
Niagara River (Upper),Rainbow Trout - Smallmouth Bass - Largemouth Bass - Sunfish - Yellow Perch - Muskellunge - Northern Pike - Walleye - Carp,None,http://www.dec.ny.gov/outdoor/31428.html,Erie,Boat Launch (Trailer Improved),Municipal,http://www.dec.ny.gov/outdoor/23898.html,-78.924851382,42.964723521,"(42.964723521, -78.924851382)"
Niagara River (Upper),Rainbow Trout - Smallmouth Bass - Largemouth Bass - Sunfish - Yellow Perch - Muskellunge - Northern Pike - Walleye - Carp,None,http://www.dec.ny.gov/outdoor/31428.html,Erie,Boat Launch (Trailer Improved),Municipal,http://www.dec.ny.gov/outdoor/23898.html,-78.909544175,42.945734622,"(42.945734622, -78.909544175)"
Niagara River (Upper),Rainbow Trout - Smallmouth Bass - Largemouth Bass - Sunfish - Yellow Perch - Muskellunge - Northern Pike - Walleye - Carp,Marina available at state park.,http://www.dec.ny.gov/outdoor/31428.html,Erie,Shore Fishing - Boat Launch (Hand Launch),Beaver Island State Park,,-78.956061065,42.959058568,"(42.959058568, -78.956061065)"
Niagara River (Upper),Rainbow Trout - Smallmouth Bass - Largemouth Bass - Sunfish - Yellow Perch - Muskellunge - Northern Pike - Walleye - Carp,None,http://www.dec.ny.gov/outdoor/31428.html,Niagara,Shore Fishing - Boat Launch (Trailer Improved),Griffon Park (Municipal),http://www.dec.ny.gov/outdoor/23883.html,-78.953415212,43.075938439,"(43.075938439, -78.953415212)"
Niagara River (Upper),Rainbow Trout - Smallmouth Bass - Largemouth Bass - Sunfish - Yellow Perch - Muskellunge - Northern Pike - Walleye - Carp,None,http://www.dec.ny.gov/outdoor/31428.html,Niagara,Shore Fishing - Boat Launch (Trailer Improved),Gratwick Riverside Park (Municipal),http://www.dec.ny.gov/outdoor/23883.html,-78.899280741,43.053921139,"(43.053921139, -78.899280741)"
Ischua Creek,Brook Trout* - Brown Trout*,None,http://www.dec.ny.gov/outdoor/31432.html,Cattaraugus,Shore Fishing - Public Fishing Rights,Public Easement,http://www.dec.ny.gov/docs/fish_marine_pdf/ischuacreek.pdf,-78.462914733,42.310056584,"(42.310056584, -78.462914733)"
Goose Creek,Brook Trout* - Brown Trout*,None,http://www.dec.ny.gov/outdoor/31420.html,Chautauqua,Shore Fishing - Public Fishing Rights,Public Easement,http://www.dec.ny.gov/docs/fish_marine_pdf/goosecreek.pdf,-79.412461551,42.084188387,"(42.084188387, -79.412461551)"
Clear Creek (Ellington),Brown Trout,None,http://www.dec.ny.gov/outdoor/31420.html,Chautauqua,Shore Fishing - Public Fishing Rights,Public Easement,http://www.dec.ny.gov/docs/fish_marine_pdf/clearcreekelling.pdf,-79.158538511,42.265576911,"(42.265576911, -79.158538511)"
Clear Creek (Ellington),Brown Trout,None,http://www.dec.ny.gov/outdoor/31420.html,Chautauqua,Shore Fishing - Public Fishing Rights,Public Easement,http://www.dec.ny.gov/docs/fish_marine_pdf/clearcreekelling.pdf,-79.153304992,42.257507691,"(42.257507691, -79.153304992)"
